- act: '1'
  ar: 新北市新店區中正路700巷3號
  aren: No. 3, Lane 700 Chung Cheng Road, Xindian District
  bemp: '14'
  lat: '24.99116'
  lng: '121.53398'
  mday: '20180611070918'
  sarea: 新店區
  sareaen: Xindian Dist.
  sbi: '24'
  sna: 大鵬華城
  snaen: Dapeng Community
  sno: '1001'
  tot: '38'
- act: '1'
  ar: 南昌街/新昌路口(西側廣場)
  aren: Nanchang St./Xinchang Rd.
  bemp: '14'
  lat: '25.068914'
  lng: '121.662748'
  mday: '20180611070936'
  sarea: 汐止區
  sareaen: Xizhi Dist.
  sbi: '42'
  sna: 汐止火車站
  snaen: Xizhi Railway Station
  sno: '1002'
  tot: '56'
- act: '1'
  ar: 新台五路一段/仁愛路口(新台五路側汐止地政事務所前機車停車場)
  aren: Sec. 1, Xintai 5th Rd./Ren’ai Rd.
  bemp: '42'
  lat: '25.064162'
  lng: '121.658301'
  mday: '20180611070821'
  sarea: 汐止區
  sareaen: Xizhi Dist.
  sbi: '4'
  sna: 汐止區公所
  snaen: Xizhi Dist. Office
  sno: '1003'
  tot: '46'
- act: '1'
  ar: 建成路78號對面停車場
  aren: No78, Jiancheng Rd
  bemp: '20'
  lat: '25.07315'
  lng: '121.662555'
  mday: '20180611070915'
  sarea: 汐止區
  sareaen: Xizhi Dist.
  sbi: '36'
  sna: 國泰綜合醫院
  snaen: Cathay General Hospital
  sno: '1004'
  tot: '56'
- act: '1'
  ar: 寶中路/品牌路口(東南側)
  aren: Baozhong Rd./
  bemp: '23'
  lat: '24.979649'
  lng: '121.546319'
  mday: '20180611070918'
  sarea: 新店區
  sareaen: Xindian Dist.
  sbi: '17'
  sna: 裕隆公園
  snaen: Yulon Park
  sno: '1005'
  tot: '40'
- act: '1'
  ar: 寶安街/寶安街58巷(西北側)
  aren: Bao'an St./Ln. 58,Bao'an St
  bemp: '15'
  lat: '24.983977'
  lng: '121.541721'
  mday: '20180611070939'
  sarea: 新店區
  sareaen: Xindian Dist.
  sbi: '16'
  sna: 捷運大坪林站(3號出口)
  snaen: MRT Dapinglin Sta.(Exit.3)
  sno: '1006'
  tot: '32'
- act: '1'
  ar: 大同路二段184巷/龍安路202巷(西側)(汐科火車站北站出口前)
  aren: Ln. 184,Sec. 2, Datong Rd./Ln. 202,Long’an Rd.
  bemp: '19'
  lat: '25.064106'
  lng: '121.653019'
  mday: '20180611070943'
  sarea: 汐止區
  sareaen: Xizhi Dist.
  sbi: '15'
  sna: 汐科火車站(北)
  snaen: Xike Railway Station(North)
  sno: '1007'
  tot: '34'
- act: '1'
  ar: 重陽路一段120巷/中華路2巷
  aren: Ln. 120, Sec. 1, Chongyang Rd./Ln. 2, Zhonghua Rd.
  bemp: '13'
  lat: '25.060125'
  lng: '121.483101'
  mday: '20180611070927'
  sarea: 三重區
  sareaen: Sanchong Dist.
  sbi: '27'
  sna: 興華公園
  snaen: Xinghua Park
  sno: '1008'
  tot: '40'
- act: '1'
  ar: 集美街/重新路四段184巷
  aren: Jimei St., Sanchong Dist./Ln. 184, Sec. 4, Chongxin Rd.
  bemp: '26'
  lat: '25.054391'
  lng: '121.488489'
  mday: '20180611070923'
  sarea: 三重區
  sareaen: Sanchong Dist.
  sbi: '40'
  sna: 三重國民運動中心
  snaen: San chong Civil Sports Center
  sno: '1009'
  tot: '68'
- act: '1'
  ar: 捷運路/捷運路37巷
  aren: Jieyun Rd./Ln. 37, Jieyun Rd.
  bemp: '13'
  lat: '25.055883'
  lng: '121.484739'
  mday: '20180611070921'
  sarea: 三重區
  sareaen: Sanchong Dist.
  sbi: '21'
  sna: 捷運三重站(3號出口)
  snaen: MRT Sanchong Sta. (Exit 3)
  sno: '1010'
  tot: '34'
- act: '1'
  ar: 樟樹二路/樟樹一路141巷
  aren: Zhangshu 2nd Rd./Ln. 141, Zhangshu 1st Rd.
  bemp: '12'
  lat: '25.066688'
  lng: '121.640367'
  mday: '20180611070926'
  sarea: 汐止區
  sareaen: Xizhi Dist.
  sbi: '36'
  sna: 樟樹國小
  snaen: Zhangshu Elementary School
  sno: '1011'
  tot: '48'
- act: '1'
  ar: 中興路/民族六街
  aren: Zhongxing Rd./Minzu 6th St.
  bemp: '42'
  lat: '25.0688'
  lng: '121.628908'
  mday: '20180611070917'
  sarea: 汐止區
  sareaen: Xizhi Dist.
  sbi: '10'
  sna: 金龍國小
  snaen: Jinlong Elementary School
  sno: '1012'
  tot: '52'
- act: '1'
  ar: 民權街二段90號
  aren: No.90, Sec. 2, Minquan St.
  bemp: '22'
  lat: '25.047578'
  lng: '121.618888'
  mday: '20180611070926'
  sarea: 汐止區
  sareaen: Xizhi Dist.
  sbi: '23'
  sna: 白雲國小
  snaen: Pai Yun Primary School
  sno: '1013'
  tot: '46'
- act: '1'
  ar: 東勢街/芳園街
  aren: Dongshi St./Fangyuan St.
  bemp: '20'
  lat: '25.039031'
  lng: '121.624333'
  mday: '20180611070941'
  sarea: 汐止區
  sareaen: Xizhi Dist.
  sbi: '25'
  sna: 東勢宜興活動中心
  snaen: Yixing-Dongshi Civic Center
  sno: '1014'
  tot: '52'
- act: '1'
  ar: 建安街/建安街57巷
  aren: Ln. 57, Jian’an St./Jian’an St.
  bemp: '18'
  lat: '25.025358'
  lng: '121.428348'
  mday: '20180611070941'
  sarea: 新莊區
  sareaen: Xinzhuang Dist.
  sbi: '22'
  sna: 後港公園
  snaen: Hougang Park
  sno: '1015'
  tot: '40'
- act: '1'
  ar: 四維路17號-20號
  aren: No.17, Siwei Rd./No.20, Siwei Rd.
  bemp: '27'
  lat: '25.0241250'
  lng: '121.423870'
  mday: '20180611070928'
  sarea: 新莊區
  sareaen: Xinzhuang Dist.
  sbi: '15'
  sna: 福營行政中心
  snaen: Fuying Administration Center
  sno: '1016'
  tot: '42'
- act: '1'
  ar: 新莊區西盛街/西盛街201巷
  aren: Xisheng St./Ln. 201, Xisheng St.
  bemp: '22'
  lat: '25.017113'
  lng: '121.428048'
  mday: '20180611070937'
  sarea: 新莊區
  sareaen: Xinzhuang Dist.
  sbi: '14'
  sna: 西盛公園
  snaen: Xisheng Park
  sno: '1017'
  tot: '36'
- act: '1'
  ar: 北新路二段/北新路二段97巷
  aren: Sec. 2, Beixin Rd./Ln. 97, Sec. 2, Beixin Rd.
  bemp: '15'
  lat: '24.974272'
  lng: '121.542779'
  mday: '20180611070934'
  sarea: 新店區
  sareaen: Xindian Dist.
  sbi: '25'
  sna: 忠誠里(北新路2段97巷)
  snaen: Zhongcheng Village (Ln. 97, Sec. 2, Beixin Rd)
  sno: '1018'
  tot: '40'
- act: '1'
  ar: 民權路139號旁
  aren: No.139, Minquan Rd.
  bemp: '19'
  lat: '25.090565'
  lng: '121.471621'
  mday: '20180611070926'
  sarea: 蘆洲區
  sareaen: Luzhou Dist.
  sbi: '29'
  sna: 仁愛廣場
  snaen: Renai Square
  sno: '1019'
  tot: '50'
- act: '1'
  ar: 中正北路/三民街175巷
  aren: Zhongzheng N. Rd./Ln. 175, Sanmin St.
  bemp: '17'
  lat: '25.066245'
  lng: '121.484337'
  mday: '20180611070937'
  sarea: 三重區
  sareaen: Sanchong Dist.
  sbi: '25'
  sna: 重陽國小
  snaen: Chong Yang Elementary School
  sno: '1020'
  tot: '42'
- act: '1'
  ar: 中正北路107號
  aren: No.107, Zhongzheng N. Rd
  bemp: '19'
  lat: '25.063396'
  lng: '121.488982'
  mday: '20180611070944'
  sarea: 三重區
  sareaen: Sanchong Dist.
  sbi: '31'
  sna: 明志國中
  snaen: Mingzhi Junior High School
  sno: '1021'
  tot: '50'
- act: '1'
  ar: 中正北路/中正北路276巷
  aren: Ln. 276, Zhongzheng N. Rd.
  bemp: '38'
  lat: '25.068681'
  lng: '121.480705'
  mday: '20180611070934'
  sarea: 三重區
  sareaen: Sanchong Dist.
  sbi: '26'
  sna: 三重商工
  snaen: San-Chung Commercial and Industrial Vocational High School
  sno: '1022'
  tot: '64'
- act: '1'
  ar: 中正路/中華路一段
  aren: Zhongzheng Rd./Sec. 1, Zhonghua Rd.
  bemp: '56'
  lat: '25.036152'
  lng: '121.452069'
  mday: '20180611070940'
  sarea: 新莊區
  sareaen: Xinzhuang Dist.
  sbi: '2'
  sna: 捷運新莊站(1號出口)
  snaen: MRT Xinzhuang Sta. (Exit 1)
  sno: '1023'
  tot: '58'
- act: '1'
  ar: 原興路/中興路150巷
  aren: Yuanxing Rd./Ln. 150, Zhongxing Rd.
  bemp: '28'
  lat: '25.065042'
  lng: '121.633149'
  mday: '20180611070922'
  sarea: 汐止區
  sareaen: Xizhi Dist.
  sbi: '23'
  sna: 原興廣場
  snaen: Yuan Xing Square
  sno: '1024'
  tot: '52'
- act: '1'
  ar: 水源路二段42號訖水源路二段68號
  aren: No.42 to No.68, Sec. 2, Shuiyuan Rd.
  bemp: '35'
  lat: '25.056875'
  lng: '121.655207'
  mday: '20180611070930'
  sarea: 汐止區
  sareaen: Xizhi Dist.
  sbi: '41'
  sna: 文化白雲公園
  snaen: Wenhua-Baiyun Park
  sno: '1025'
  tot: '76'
- act: '1'
  ar: 更生街/自立路(西南側)
  aren: Gengsheng St./Zili Rd.
  bemp: '9'
  lat: '24.996151'
  lng: '121.521988'
  mday: '20180611070943'
  sarea: 中和區
  sareaen: Zhonghe Dist.
  sbi: '53'
  sna: 秀山國小
  snaen: Xiushan Elementary School
  sno: '1026'
  tot: '62'
- act: '1'
  ar: 中安街/中和路378巷(東南側)
  aren: Zhong’an St./Ln. 378, Zhonghe Rd.
  bemp: '62'
  lat: '25.001013'
  lng: '121.511588'
  mday: '20180611070928'
  sarea: 中和區
  sareaen: Zhonghe Dist.
  sbi: '10'
  sna: 捷運永安市場站
  snaen: MRT Yongan Market Sta.
  sno: '1027'
  tot: '72'
- act: '1'
  ar: 永貞路/永亨路(東南側)
  aren: Yongzhen Rd./Yongheng Rd.
  bemp: '38'
  lat: '25.005952'
  lng: '121.520930'
  mday: '20180611070920'
  sarea: 永和區
  sareaen: Yonghe Dist.
  sbi: '28'
  sna: 福和國中
  snaen: Fuhe Junior High School
  sno: '1028'
  tot: '66'
- act: '1'
  ar: 仁愛路/保生路
  aren: Ren’ai Rd./Baosheng Rd.
  bemp: '27'
  lat: '25.009838'
  lng: '121.505825'
  mday: '20180611070926'
  sarea: 永和區
  sareaen: Yonghe Dist.
  sbi: '33'
  sna: 仁愛公園
  snaen: Renai Park
  sno: '1029'
  tot: '60'
- act: '1'
  ar: 安樂路/得和路(西南側)
  aren: Anle Rd./Dehe Rd.
  bemp: '8'
  lat: '25.000726'
  lng: '121.514350'
  mday: '20180611070922'
  sarea: 中和區
  sareaen: Zhonghe Dist.
  sbi: '38'
  sna: 中和公園
  snaen: Zhonghe Park
  sno: '1030'
  tot: '46'
- act: '1'
  ar: 湖前街31巷2弄/湖前街31巷
  aren: Aly. 2, Ln. 31, Huqian St./Ln. 31, Huqian St.
  bemp: '25'
  lat: '25.069473'
  lng: '121.631525'
  mday: '20180611070941'
  sarea: 汐止區
  sareaen: Xizhi Dist.
  sbi: '27'
  sna: 金龍公園
  snaen: Jinlong Park
  sno: '1031'
  tot: '52'
- act: '1'
  ar: 集賢路221巷重陽活動中心
  aren: Ln. 221, Jixian Rd.
  bemp: '20'
  lat: '25.085688'
  lng: '121.483618'
  mday: '20180611070920'
  sarea: 蘆洲區
  sareaen: Luzhou Dist.
  sbi: '28'
  sna: 重陽公園
  snaen: Chong Yang Park
  sno: '1032'
  tot: '50'
- act: '1'
  ar: 三民路105號
  aren: No.105, Sanmin Rd.
  bemp: '69'
  lat: '25.085815'
  lng: '121.472722'
  mday: '20180611070837'
  sarea: 蘆洲區
  sareaen: Luzhou Dist.
  sbi: '8'
  sna: 捷運三民高中站(1號出口)
  snaen: MRT Sanmin Senior High School Sta. (Exit 1)
  sno: '1033'
  tot: '78'
- act: '1'
  ar: 長興路22號前通道
  aren: No.22, Changxing Rd.
  bemp: '19'
  lat: '25.083316'
  lng: '121.463894'
  mday: '20180611070932'
  sarea: 蘆洲區
  sareaen: Luzhou Dist.
  sbi: '39'
  sna: 中原公園
  snaen: Zhung Yuan Park
  sno: '1034'
  tot: '58'
- act: '1'
  ar: 雙鳳路77巷丹鳳派出所前
  aren: Ln. 77, Shuangfeng Rd.(Danfeng Police Station)
  bemp: '31'
  lat: '25.027694'
  lng: '121.414662'
  mday: '20180611070927'
  sarea: 新莊區
  sareaen: Xinzhuang Dist.
  sbi: '7'
  sna: 丹鳳派出所
  snaen: Danfeng Police Substation
  sno: '1035'
  tot: '38'
- act: '1'
  ar: 民族路/建興街
  aren: Minzu Rd./Jianxing St.
  bemp: '31'
  lat: '24.977227'
  lng: '121.538140'
  mday: '20180611070944'
  sarea: 新店區
  sareaen: Xindian Dist.
  sbi: '29'
  sna: 小金門友誼公園
  snaen: Little Kinmen Park
  sno: '1036'
  tot: '60'
- act: '1'
  ar: 中興路三段1號旁
  aren: No.1, Sec. 3, Zhongxing Rd.
  bemp: '44'
  lat: '24.976180'
  lng: '121.546870'
  mday: '20180611070943'
  sarea: 新店區
  sareaen: Xindian Dist.
  sbi: '8'
  sna: 中興寶橋路口
  snaen: Zhongxing & Baoqiao Intersection　
  sno: '1037'
  tot: '52'
- act: '1'
  ar: 和興街75號/復興路一段23號
  aren: No.75, Hexing St./No.23, Sec. 1, Fuxing Rd.
  bemp: '39'
  lat: '25.041603'
  lng: '121.446053'
  mday: '20180611070924'
  sarea: 新莊區
  sareaen: Xinzhuang Dist.
  sbi: '34'
  sna: 新莊棒球場
  snaen: Xinzhuang Baseball Court
  sno: '1038'
  tot: '74'
- act: '1'
  ar: 文化路133號(西側)
  aren: No.133, Wenhua Rd.
  bemp: '8'
  lat: '25.015811'
  lng: '121.511261'
  mday: '20180611070920'
  sarea: 永和區
  sareaen: Yonghe Dist.
  sbi: '36'
  sna: 頂溪國小
  snaen: Tinghsi Elementary School
  sno: '1039'
  tot: '44'
- act: '1'
  ar: 中正路390號至426號對面
  aren: No.390 to No.426, Zhongzheng Rd.(opposite)
  bemp: '25'
  lat: '25.002272'
  lng: '121.517442'
  mday: '20180611070940'
  sarea: 永和區
  sareaen: Yonghe Dist.
  sbi: '10'
  sna: 永和國小
  snaen: Yonghe Elementary School
  sno: '1040'
  tot: '38'
- act: '1'
  ar: 民生路15號至23號對面
  aren: No.15 to No.23, Minsheng Rd.(opposite)
  bemp: '15'
  lat: '24.999392'
  lng: '121.522843'
  mday: '20180611070921'
  sarea: 永和區
  sareaen: Yonghe Dist.
  sbi: '30'
  sna: 秀朗國小
  snaen: Xiu Lang Elementary School
  sno: '1041'
  tot: '46'
- act: '1'
  ar: 建國路289號旁空地
  aren: No.289, Jianguo Rd.
  bemp: '28'
  lat: '24.985872'
  lng: '121.536887'
  mday: '20180611070928'
  sarea: 新店區
  sareaen: Xindian Dist.
  sbi: '12'
  sna: 台北慈濟醫院
  snaen: Taipei Tzu Chi Hospital
  sno: '1042'
  tot: '40'
- act: '1'
  ar: 中興街1號對面
  aren: No.1, Zhongxing St.(opposite)
  bemp: '20'
  lat: '25.012176'
  lng: '121.515271'
  mday: '20180611071001'
  sarea: 永和區
  sareaen: Yonghe Dist.
  sbi: '16'
  sna: 捷運頂溪站(1號出口)
  snaen: MRT Dingxi Sta. (Exit 1)
  sno: '1043'
  tot: '36'
- act: '1'
  ar: 保安路248號至250號對面
  aren: No.248 to No.250, Bao’an Rd.
  bemp: '13'
  lat: '25.012691'
  lng: '121.506471'
  mday: '20180611070933'
  sarea: 永和區
  sareaen: Yonghe Dist.
  sbi: '28'
  sna: 保安永平路口
  snaen: Bao'an & Yongping Intersection
  sno: '1044'
  tot: '42'
- act: '1'
  ar: 三民路14號至三民路18號
  aren: No.14 to No.18, Sanmin Rd.
  bemp: '24'
  lat: '24.972127'
  lng: '121.539554'
  mday: '20180611070933'
  sarea: 新店區
  sareaen: Xindian Dist.
  sbi: '11'
  sna: 崇光女中
  snaen: Our Lady of Providence Girls' High School
  sno: '1045'
  tot: '36'
- act: '1'
  ar: 三民路159巷/三民路108號(對面人行道)
  aren: Ln. 159, Sanmin Rd./ No.108, Sanmin Rd.
  bemp: '27'
  lat: '24.974181'
  lng: '121.534209'
  mday: '20180611070937'
  sarea: 新店區
  sareaen: Xindian Dist.
  sbi: '15'
  sna: 新店高中
  snaen: Hsin Tien Senior High School
  sno: '1046'
  tot: '42'
- act: '1'
  ar: 中平路133號前
  aren: No.133, Zhongping Rd.
  bemp: '35'
  lat: '25.047150'
  lng: '121.444453'
  mday: '20180611070921'
  sarea: 新莊區
  sareaen: Xinzhuang Dist.
  sbi: '12'
  sna: 新莊文化藝術中心
  snaen: Xinzhuang Culture and Arts Center
  sno: '1047'
  tot: '48'
- act: '1'
  ar: 中原路/中華路二段
  aren: Zhongyuan Rd./Sec. 2, Zhonghua Rd
  bemp: '14'
  lat: '25.054232'
  lng: '121.451752'
  mday: '20180611070939'
  sarea: 新莊區
  sareaen: Xinzhuang Dist.
  sbi: '44'
  sna: 中華中原路口
  snaen: Zhonghua & Zhongyuan Intersection
  sno: '1048'
  tot: '58'
- act: '1'
  ar: 三信路1號旁
  aren: No.1, Sanxin Rd.
  bemp: '43'
  lat: '25.087225'
  lng: '121.489525'
  mday: '20180611070921'
  sarea: 三重區
  sareaen: Sanchong Dist.
  sbi: '17'
  sna: 新北高中
  snaen: New Taipei Senior High School
  sno: '1049'
  tot: '60'
- act: '1'
  ar: 福壽街130號至140號(對面福壽公園)
  aren: No.130 to No.140, Fushou St.
  bemp: '12'
  lat: '25.051829'
  lng: '121.457746'
  mday: '20180611070917'
  sarea: 新莊區
  sareaen: Xinzhuang Dist.
  sbi: '24'
  sna: 福壽公園
  snaen: Fushou Park
  sno: '1050'
  tot: '36'
- act: '1'
  ar: 保長路/保長路45巷
  aren: Baochang Rd./Ln. 45, Baochang Rd.
  bemp: '8'
  lat: '25.079523'
  lng: '121.674342'
  mday: '20180611070938'
  sarea: 汐止區
  sareaen: Xizhi Dist.
  sbi: '19'
  sna: 保長公園
  snaen: Baochang Park
  sno: '1051'
  tot: '28'
- act: '1'
  ar: 中央四街64號對面
  aren: No.64, Zhongyang 4th St. (opposite)
  bemp: '9'
  lat: '24.975308'
  lng: '121.527287'
  mday: '20180611070945'
  sarea: 新店區
  sareaen: Xindian Dist.
  sbi: '27'
  sna: 新店公有中央市場
  snaen: Zhongyang Market
  sno: '1052'
  tot: '36'
- act: '1'
  ar: 永平路/永平路203巷口(靠學校圍牆路側)
  aren: Yongping Rd./Ln. 203, Yongping Rd.
  bemp: '16'
  lat: '25.009790'
  lng: '121.509092'
  mday: '20180611070938'
  sarea: 永和區
  sareaen: Yonghe Dist.
  sbi: '18'
  sna: 永平高中
  snaen: Yong-Ping High School
  sno: '1053'
  tot: '34'
- act: '1'
  ar: 中正路75巷至中正路95巷間
  aren: Ln. 75 to Ln. 95 , Zhongzheng Rd.
  bemp: '20'
  lat: '24.970415'
  lng: '121.543384'
  mday: '20180611070934'
  sarea: 新店區
  sareaen: Xindian Dist.
  sbi: '16'
  sna: 惠國市場
  snaen: Huiguo Market
  sno: '1054'
  tot: '36'
- act: '1'
  ar: 溪園路/中山路
  aren: Xiyuan Rd./Zhongshan Rd.
  bemp: '16'
  lat: '24.978494'
  lng: '121.524176'
  mday: '20180611070918'
  sarea: 新店區
  sareaen: Xindian Dist.
  sbi: '24'
  sna: 陽光橋
  snaen: Sunshine Bridge
  sno: '1055'
  tot: '40'
- act: '1'
  ar: 中興路三段/寶慶街
  aren: Sec. 3, Zhongxing Rd./Baoqing St.
  bemp: '15'
  lat: '24.986942'
  lng: '121.541950'
  mday: '20180611070921'
  sarea: 新店區
  sareaen: Xindian Dist.
  sbi: '35'
  sna: 中興寶慶街口
  snaen: Zhongxing & Baoqing Intersection
  sno: '1056'
  tot: '50'
- act: '1'
  ar: 新台五路一段90-116號
  aren: No.90 to No.116, Sec. 1, Xintai 5th Rd.
  bemp: '45'
  lat: '25.061262'
  lng: '121.649512'
  mday: '20180611070920'
  sarea: 汐止區
  sareaen: Xizhi Dist.
  sbi: '5'
  sna: 東方科學園區
  snaen: Oriental Science Park
  sno: '1057'
  tot: '52'
- act: '1'
  ar: 連興路/龍安路28巷
  aren: Lianxing St./Ln. 28, Long’an Rd.
  bemp: '37'
  lat: '25.062989'
  lng: '121.654430'
  mday: '20180611070934'
  sarea: 汐止區
  sareaen: Xizhi Dist.
  sbi: '32'
  sna: 連興龍安路口
  snaen: Lianxing & Long’an Intersection
  sno: '1058'
  tot: '70'
- act: '1'
  ar: 莊敬街33號
  aren: No.33, Zhuangjing St.
  bemp: '22'
  lat: '25.061034'
  lng: '121.655586'
  mday: '20180611070920'
  sarea: 汐止區
  sareaen: Xizhi Dist.
  sbi: '27'
  sna: 青山國民中小學
  snaen: Qingshan Elementary and Junior High School
  sno: '1059'
  tot: '50'
- act: '1'
  ar: 汐科路/秀峰路
  aren: Xike Rd./Xiufeng Rd.
  bemp: '18'
  lat: '25.066238'
  lng: '121.659067'
  mday: '20180611070937'
  sarea: 汐止區
  sareaen: Xizhi Dist.
  sbi: '26'
  sna: 汐止區綜合運動場
  snaen: Xizhi Sports Field
  sno: '1060'
  tot: '44'
- act: '1'
  ar: 大同路二段451號
  aren: No.451, Sec. 2, Datong Rd.
  bemp: '45'
  lat: '25.067682'
  lng: '121.659763'
  mday: '20180611070917'
  sarea: 汐止區
  sareaen: Xizhi Dist.
  sbi: '5'
  sna: 汐止公園
  snaen: Xizhi Park
  sno: '1061'
  tot: '52'
- act: '1'
  ar: 保順環河西路口
  aren: Baoshun & Huanhe W. Intersection
  bemp: '25'
  lat: '25.010786'
  lng: '121.503376'
  mday: '20180611070930'
  sarea: 永和區
  sareaen: Yonghe Dist.
  sbi: '32'
  sna: 保順環河西路口
  snaen: Baoshun & Huanhe W. Intersection
  sno: '1062'
  tot: '58'
- act: '1'
  ar: 大同路一段237號前空地
  aren: No.237, Sec. 1, Datong Rd.
  bemp: '29'
  lat: '25.057900'
  lng: '121.634899'
  mday: '20180611070921'
  sarea: 汐止區
  sareaen: Xizhi Dist.
  sbi: '11'
  sna: 台灣科學園區
  snaen: Taiwan Science Park
  sno: '1063'
  tot: '40'
- act: '1'
  ar: 三民路36號-42-1號前機車格
  aren: No. 36 to No.42-1, Sanmin Rd.
  bemp: '13'
  lat: '24.971496'
  lng: '121.536296'
  mday: '20180611070937'
  sarea: 新店區
  sareaen: Xindian Dist.
  sbi: '19'
  sna: 中正國小
  snaen: Chung Cheng Elementary School
  sno: '1064'
  tot: '32'
- act: '1'
  ar: 開元街58號/長元街65巷16弄對面
  aren: No.58, Kaiyuan St./Aly. 16, Ln. 65, Changyuan St. (opposite)
  bemp: '18'
  lat: '25.066074'
  lng: '121.503557'
  mday: '20180611070917'
  sarea: 三重區
  sareaen: Sanchong Dist.
  sbi: '24'
  sna: 開元市民活動中心
  snaen: Kaiyuan Civic Activity Center
  sno: '1065'
  tot: '42'
- act: '1'
  ar: 南陽街185號
  aren: No.185, Nanyang St.
  bemp: '11'
  lat: '25.058078'
  lng: '121.626018'
  mday: '20180611070922'
  sarea: 汐止區
  sareaen: Xizhi Dist.
  sbi: '33'
  sna: 雍和科學園區
  snaen: Taipei Park
  sno: '1066'
  tot: '44'
- act: '1'
  ar: 頂崁街164號至188號(對面二重國小)
  aren: No.164 to No.188, Dingkan St. (opposite)
  bemp: '29'
  lat: '25.065976'
  lng: '121.477656'
  mday: '20180611070944'
  sarea: 三重區
  sareaen: Sanchong Dist.
  sbi: '16'
  sna: 二重國小
  snaen: Er Chong Elementary School
  sno: '1067'
  tot: '46'
- act: '1'
  ar: 忠孝路三段75巷1號至忠孝路三段75巷11號(對面人行道)
  aren: No.1, Ln. 75, Sec. 3, Zhongxiao Rd. to No.11, Ln. 75, Sec. 3, Zhongxiao Rd.
    (opposite)
  bemp: '48'
  lat: '25.065957'
  lng: '121.480465'
  mday: '20180611070931'
  sarea: 三重區
  sareaen: Sanchong Dist.
  sbi: '21'
  sna: 二重國中
  snaen: Er Chung Junior High School
  sno: '1068'
  tot: '70'
- act: '1'
  ar: 新北大道一段15巷至新北大道一段5巷2弄(區公所人行道)
  aren: Ln. 12, Zhongshan Rd.,/Aly. 2, Ln. 5, Sec. 1, New Taipei Blvd.
  bemp: '31'
  lat: '25.060566'
  lng: '121.488229'
  mday: '20180611070943'
  sarea: 三重區
  sareaen: Sanchong Dist.
  sbi: '12'
  sna: 三重行政中心
  snaen: Sanchong District office
  sno: '1069'
  tot: '44'
- act: '1'
  ar: 自強路一段162號至自強路一段二弄4號(對面停車場)
  aren: No.162, Sec. 1, Ziqiang Rd. to No.4, Aly. 2, Sec. 1, Ziqiang Rd. (opposite)
  bemp: '11'
  lat: '25.066099'
  lng: '121.495529'
  mday: '20180611070916'
  sarea: 三重區
  sareaen: Sanchong Dist.
  sbi: '39'
  sna: 新北市立圖書館三重分館
  snaen: New Taipei City Library Sanchong Branch
  sno: '1070'
  tot: '50'
- act: '1'
  ar: 大智街127號至大智路137號(對面三張公園)
  aren: No.127, Dazhi St. to No.137, Dazhi St. (opposite)
  bemp: '16'
  lat: '25.070507'
  lng: '121.490935'
  mday: '20180611070940'
  sarea: 三重區
  sareaen: Sanchong Dist.
  sbi: '24'
  sna: 三張公園
  snaen: Sanzhang Park
  sno: '1071'
  tot: '40'
- act: '1'
  ar: 中正路/民安路
  aren: Zhongzheng Rd./Min’an Rd
  bemp: '19'
  lat: '25.029032'
  lng: '121.422799'
  mday: '20180611070919'
  sarea: 新莊區
  sareaen: Xinzhuang Dist.
  sbi: '27'
  sna: 捷運丹鳳站(1號出口)
  snaen: MRT Danfeng Sta. (Exit 1)
  sno: '1072'
  tot: '46'
- act: '1'
  ar: 豫溪街217巷27號對面人行道
  aren: No.27, Ln. 217, Yuxi St. (opposite)
  bemp: '17'
  lat: '25.010032'
  lng: '121.524184'
  mday: '20180611070921'
  sarea: 永和區
  sareaen: Yonghe Dist.
  sbi: '32'
  sna: 永福橋
  snaen: Yongfu Bridge
  sno: '1073'
  tot: '50'
- act: '1'
  ar: 中和街62號對面
  aren: No.62, Zhonghe St. (opposite)
  bemp: '28'
  lat: '25.045947'
  lng: '121.447746'
  mday: '20180611070932'
  sarea: 新莊區
  sareaen: Xinzhuang Dist.
  sbi: '22'
  sna: 中港國小
  snaen: Zhonggang Elementary School
  sno: '1074'
  tot: '50'
- act: '1'
  ar: 自強路二段74巷27號對面
  aren: No.27, Ln. 74, Sec. 2, Ziqiang Rd. (opposite)
  bemp: '13'
  lat: '25.069499'
  lng: '121.487588'
  mday: '20180611070925'
  sarea: 三重區
  sareaen: Sanchong Dist.
  sbi: '27'
  sna: 六合公園
  snaen: Liuhe Park
  sno: '1075'
  tot: '40'
- act: '1'
  ar: 文化北路101號至119號對面
  aren: No.101 to No. 119, Wenhua N. Rd. (opposite)
  bemp: '18'
  lat: '25.068551'
  lng: '121.497818'
  mday: '20180611070932'
  sarea: 三重區
  sareaen: Sanchong Dist.
  sbi: '34'
  sna: 正義公園
  snaen: Zhengyi Park
  sno: '1076'
  tot: '52'
- act: '1'
  ar: 中山一路3號(捷運徐匯中學站1號出口旁)
  aren: No.3, Zhongshan 1st Rd.
  bemp: '14'
  lat: '25.080468'
  lng: '121.479852'
  mday: '20180611070940'
  sarea: 蘆洲區
  sareaen: Luzhou Dist.
  sbi: '42'
  sna: 捷運徐匯中學站(1號出口)
  snaen: MRT St.Ignatius High School Sta. (Exit 1)
  sno: '1077'
  tot: '56'
- act: '1'
  ar: 中信街74號旁
  aren: No.74, Zhongxin St.
  bemp: '18'
  lat: '25.052382'
  lng: '121.448239'
  mday: '20180611070925'
  sarea: 新莊區
  sareaen: Xinzhuang Dist.
  sbi: '19'
  sna: 黃城公園
  snaen: Huangcheng Park
  sno: '1078'
  tot: '38'
- act: '1'
  ar: 重新路三段67號旁
  aren: No.67, Sec. 3, Chongxin Rd.
  bemp: '16'
  lat: '25.060471'
  lng: '121.492198'
  mday: '20180611070930'
  sarea: 三重區
  sareaen: Sanchong Dist.
  sbi: '13'
  sna: 捷運菜寮站(3號出口)
  snaen: MRT Cailiao Sta. (Exit 3)
  sno: '1079'
  tot: '30'
- act: '1'
  ar: 三和路四段95號至97號對面(捷運三和國中站1號出口)
  aren: No.95 to N0. 97, Sec. 4, Sanhe Rd. (opposite)
  bemp: '27'
  lat: '25.075881'
  lng: '121.487795'
  mday: '20180611070937'
  sarea: 三重區
  sareaen: Sanchong Dist.
  sbi: '21'
  sna: 捷運三和國中站(1號出口)
  snaen: MRT Sanhe Junior High School Sta.
  sno: '1080'
  tot: '48'
- act: '1'
  ar: 和城路一段/中正二橋
  aren: Sec. 1, Hecheng Rd./  Zhongzheng Second Bridge
  bemp: '33'
  lat: '24.993477'
  lng: '121.487692'
  mday: '20180611070918'
  sarea: 中和區
  sareaen: Zhonghe Dist.
  sbi: '17'
  sna: 中和國民運動中心
  snaen: Zhonghe Civil Sports Center
  sno: '1081'
  tot: '50'
- act: '1'
  ar: 四維路181號對面(四維活動中心出口前)
  aren: No.181, Siwei Rd. (opposite)
  bemp: '11'
  lat: '25.021308'
  lng: '121.422185'
  mday: '20180611070933'
  sarea: 新莊區
  sareaen: Xinzhuang Dist.
  sbi: '28'
  sna: 四維公園
  snaen: Siwei Park
  sno: '1082'
  tot: '40'
- act: '1'
  ar: 長興路237巷/長興路
  aren: Ln. 237, Changxing Rd./Changxing Rd.
  bemp: '9'
  lat: '25.091945'
  lng: '121.461613'
  mday: '20180611070923'
  sarea: 蘆洲區
  sareaen: Luzhou Dist.
  sbi: '33'
  sna: 蘆洲國民運動中心
  snaen: Luzhou Civil Sports Center
  sno: '1083'
  tot: '42'
- act: '1'
  ar: 忠孝路二段/忠孝路二段32巷
  aren: Zhongxiao Rd./Ln. 32, Sec. 2, Zhongxiao Rd.
  bemp: '13'
  lat: '25.070884'
  lng: '121.485712'
  mday: '20180611070924'
  sarea: 三重區
  sareaen: Sanchong Dist.
  sbi: '23'
  sna: 和平公園
  snaen: Helping Park
  sno: '1084'
  tot: '36'
- act: '1'
  ar: 新北大道一段1號前人行道
  aren: No.1, Sec. 1, New Taipei Blvd.
  bemp: '37'
  lat: '25.061446'
  lng: '121.491926'
  mday: '20180611070841'
  sarea: 三重區
  sareaen: Sanchong Dist.
  sbi: '15'
  sna: 三重綜合體育館
  snaen: Sanchong Sports Center
  sno: '1085'
  tot: '52'
- act: '1'
  ar: 信義西街18號對面人行道
  aren: No.18, Xinyi W. St. (opposite)
  bemp: '13'
  lat: '25.064804'
  lng: '121.498749'
  mday: '20180611070932'
  sarea: 三重區
  sareaen: Sanchong Dist.
  sbi: '23'
  sna: 信義公園
  snaen: Xinyi Park
  sno: '1086'
  tot: '36'
- act: '1'
  ar: 捷運小碧潭站1號出口旁西側人行道(環河路側)
  aren: MRT Xiaobitan Sta. (Exit.1) (Huanhe Rd.)
  bemp: '31'
  lat: '24.97152'
  lng: '121.53029'
  mday: '20180611070938'
  sarea: 新店區
  sareaen: Xindian Dist.
  sbi: '13'
  sna: 捷運小碧潭站(1號出口)
  snaen: MRT Xiaobitan Sta. (Exit.1)
  sno: '1087'
  tot: '44'
- act: '1'
  ar: 成功路二段28號至34號
  aren: No.28 to No.34, Sec. 2, Chenggong Rd.
  bemp: '14'
  lat: '25.000705'
  lng: '121.526729'
  mday: '20180611070937'
  sarea: 永和區
  sareaen: Yonghe Dist.
  sbi: '14'
  sna: 秀得里(成功路二段)
  snaen: Xiu de Village (Chenggong Rd. Sec. 2)
  sno: '1088'
  tot: '28'
- act: '1'
  ar: 永樂街38巷42弄公園人行道(永平市場南側)
  aren: Aly. 42, Ln. 38, Yongle St.
  bemp: '15'
  lat: '25.089987'
  lng: '121.459424'
  mday: '20180611070933'
  sarea: 蘆洲區
  sareaen: Luzhou Dist.
  sbi: '29'
  sna: 永平公園
  snaen: Yongping Park
  sno: '1089'
  tot: '44'
- act: '1'
  ar: 長安街220巷6號對面人行道
  aren: No.6, Ln. 220, Chang’an St. (opposite)
  bemp: '5'
  lat: '25.084764'
  lng: '121.458733'
  mday: '20180611070941'
  sarea: 蘆洲區
  sareaen: Luzhou Dist.
  sbi: '25'
  sna: 永康公園
  snaen: Yongkang Park
  sno: '1090'
  tot: '30'
- act: '1'
  ar: 頭成街165號對面人行道
  aren: No.165, Toucheng St. (opposite)
  bemp: '37'
  lat: '25.052180'
  lng: '121.462124'
  mday: '20180611063737'
  sarea: 新莊區
  sareaen: Xinzhuang Dist.
  sbi: '13'
  sna: 頭前運動公園
  snaen: Touqian Sports Park
  sno: '1091'
  tot: '50'
- act: '1'
  ar: 中原路3至9號對面人行道
  aren: No.3 to No.9 , Zhongyuan Rd. (opposite)
  bemp: '25'
  lat: '25.054464'
  lng: '121.459318'
  mday: '20180611070928'
  sarea: 新莊區
  sareaen: Xinzhuang Dist.
  sbi: '17'
  sna: 頭前國中
  snaen: Touqian Junior High School
  sno: '1092'
  tot: '42'
- act: '1'
  ar: 建國路259號前人行道
  aren: No.259, Jianguo Rd.
  bemp: '32'
  lat: '24.983184'
  lng: '121.537462'
  mday: '20180611070930'
  sarea: 新店區
  sareaen: Xindian Dist.
  sbi: '13'
  sna: 建國民權路口
  snaen: Jianguo Minquan Intersection
  sno: '1093'
  tot: '46'
- act: '1'
  ar: 三民街/中華路
  aren: Sanmin St./Zhonghua Rd.
  bemp: '18'
  lat: '25.064447'
  lng: '121.483710'
  mday: '20180611070940'
  sarea: 三重區
  sareaen: Sanchong Dist.
  sbi: '30'
  sna: 聯邦公園
  snaen: Lian Bang Park
  sno: '1094'
  tot: '48'
- act: '1'
  ar: 三民路/中正路口
  aren: Sanmin Rd./Zhongzheng Rd.
  bemp: '33'
  lat: '25.091637'
  lng: '121.464031'
  mday: '20180611070934'
  sarea: 蘆洲區
  sareaen: Luzhou Dist.
  sbi: '18'
  sna: 捷運蘆洲站
  snaen: MRT Luzhou Sta.
  sno: '1095'
  tot: '52'
- act: '1'
  ar: 集成路2號至8號前人行道
  aren: No.2 to No.8, Jicheng Rd.
  bemp: '14'
  lat: '25.051542'
  lng: '121.488208'
  mday: '20180611070940'
  sarea: 三重區
  sareaen: Sanchong Dist.
  sbi: '18'
  sna: 集成成功路口
  snaen: Ji Cheng Cheng Gong Intersection
  sno: '1096'
  tot: '32'
- act: '1'
  ar: 英士路/智樂路
  aren: Yingshi Rd./Jhihle Rd.
  bemp: '27'
  lat: '25.022235'
  lng: '121.458152'
  mday: '20180611070930'
  sarea: 板橋區
  sareaen: Banqiao Dist.
  sbi: '17'
  sna: 板橋國民運動中心
  snaen: Banqiao Civil Sports Center
  sno: '1097'
  tot: '44'
- act: '1'
  ar: 雙十路一段25號前人行道
  aren: No.25, Sec. 1, Shuangshi Rd.
  bemp: '10'
  lat: '25.024478'
  lng: '121.477572'
  mday: '20180611070927'
  sarea: 板橋區
  sareaen: Banqiao Dist.
  sbi: '28'
  sna: 永安公園
  snaen: Yongan Park
  sno: '1098'
  tot: '38'
- act: '1'
  ar: 文化路二段/雙十路二段
  aren: Sec. 2, Wenhua Rd./Sec. 2, Shuangshi Rd.
  bemp: '29'
  lat: '25.029729'
  lng: '121.472359'
  mday: '20180611070921'
  sarea: 板橋區
  sareaen: Banqiao Dist.
  sbi: '14'
  sna: 捷運江子翠站(3號出口)
  snaen: MRT Jiangzicui Sta.(Exit 3)
  sno: '1099'
  tot: '44'
- act: '1'
  ar: 大同街97號對面公園人行道
  aren: No.97, Datong St.
  bemp: '8'
  lat: '25.028631'
  lng: '121.480460'
  mday: '20180611070932'
  sarea: 板橋區
  sareaen: Banqiao Dist.
  sbi: '40'
  sna: 音樂公園
  snaen: Yinyue Park
  sno: '1100'
  tot: '48'
- act: '1'
  ar: 北新路二段/北新路二段121巷
  aren: Sec. 2, Beixin Rd./Ln. 121, Sec. 2, Beixin Rd.
  bemp: '39'
  lat: '24.974996'
  lng: '121.542767'
  mday: '20180611070925'
  sarea: 新店區
  sareaen: Xindian Dist.
  sbi: '2'
  sna: 捷運七張站(1號出口)
  snaen: MRT Qizhang Sta. (Exit 1)
  sno: '1101'
  tot: '42'
- act: '1'
  ar: 寶橋路8號前人行道
  aren: No.8, Baoqiao Rd.
  bemp: '14'
  lat: '24.974233'
  lng: '121.544428'
  mday: '20180611070934'
  sarea: 新店區
  sareaen: Xindian Dist.
  sbi: '29'
  sna: 北新國小
  snaen: BeiXin Elementary School
  sno: '1102'
  tot: '44'
- act: '1'
  ar: 文化路一段318號旁廣場
  aren: No.318, Sec. 1, Wenhua Rd.
  bemp: '18'
  lat: '25.022095'
  lng: '121.467598'
  mday: '20180611070921'
  sarea: 板橋區
  sareaen: Banqiao Dist.
  sbi: '22'
  sna: 捷運新埔站(2號出口)
  snaen: MRT Xinpu Sta.(Exit.2)
  sno: '1103'
  tot: '40'
- act: '1'
  ar: 龍泉街131號旁人行道(立體停車場前)
  aren: No.131, Longquan St.
  bemp: '6'
  lat: '25.023832'
  lng: '121.457773'
  mday: '20180611070943'
  sarea: 板橋區
  sareaen: Banqiao Dist.
  sbi: '28'
  sna: 聯合醫院板橋院區
  snaen: New Taipei City Hospital Banqiao Branch
  sno: '1104'
  tot: '34'
- act: '1'
  ar: 文化路一段117號對面人行道
  aren: No.117, Sec. 1, Wenhua Rd. (opposite)
  bemp: '32'
  lat: '25.014797'
  lng: '121.462051'
  mday: '20180611070959'
  sarea: 板橋區
  sareaen: Banqiao Dist.
  sbi: '34'
  sna: 捷運板橋站(3號出口)
  snaen: MRT Banqiao Sta.(Exit.3)
  sno: '1105'
  tot: '68'
- act: '1'
  ar: 民生路一段/民生路一段30巷
  aren: Sec. 1, Minsheng Rd./Ln. 30, Sec. 1, Minsheng Rd.
  bemp: '16'
  lat: '25.013087'
  lng: '121.475894'
  mday: '20180611070939'
  sarea: 板橋區
  sareaen: Banqiao Dist.
  sbi: '26'
  sna: 民生公園
  snaen: Minsheng Park
  sno: '1106'
  tot: '42'
- act: '1'
  ar: 新府路1號對面人行道
  aren: No.1, Xinfu Rd. (opposite)
  bemp: '17'
  lat: '25.012374'
  lng: '121.464224'
  mday: '20180611070922'
  sarea: 板橋區
  sareaen: Banqiao Dist.
  sbi: '39'
  sna: 新北市政府(新府路)
  snaen: New Taipei City Hal ( Zinfu Rd.)
  sno: '1107'
  tot: '56'
- act: '1'
  ar: 縣民大道二段3號(秀泰影城門口)
  aren: No.3, Sec. 2, Xianmin Blvd.
  bemp: '67'
  lat: '25.013174'
  lng: '121.461900'
  mday: '20180611070937'
  sarea: 板橋區
  sareaen: Banqiao Dist.
  sbi: '35'
  sna: 捷運板橋站(1號出口)
  snaen: MRT Banqiao Sta.(Exit.1)
  sno: '1108'
  tot: '102'
- act: '1'
  ar: 實踐路5號對面
  aren: No.5, Shijian Rd. (opposite)
  bemp: '13'
  lat: '25.007983'
  lng: '121.463387'
  mday: '20180611070935'
  sarea: 板橋區
  sareaen: Banqiao Dist.
  sbi: '39'
  sna: 板橋地政事務所
  snaen: Banqiao Land Office
  sno: '1109'
  tot: '52'
- act: '1'
  ar: 中正路6號前人行道
  aren: No.6, Zhongzheng Rd.
  bemp: '26'
  lat: '25.012839'
  lng: '121.456308'
  mday: '20180611070926'
  sarea: 板橋區
  sareaen: Banqiao Dist.
  sbi: '18'
  sna: 板橋戶政事務所
  snaen: Banqiao District Household Registration Office
  sno: '1110'
  tot: '44'
- act: '1'
  ar: 重慶路355號前廣場
  aren: No.355, Chongqing Rd.
  bemp: '12'
  lat: '24.997679'
  lng: '121.464326'
  mday: '20180611070929'
  sarea: 板橋區
  sareaen: Banqiao Dist.
  sbi: '28'
  sna: 板橋和平公園
  snaen: Banqiao Heping Park
  sno: '1111'
  tot: '40'
- act: '1'
  ar: 溪尾街303號(對面公園)
  aren: No.303, Xiwei St. (opposite)
  bemp: '11'
  lat: '25.083741'
  lng: '121.487491'
  mday: '20180611070939'
  sarea: 三重區
  sareaen: Sanchong Dist.
  sbi: '16'
  sna: 碧華公園
  snaen: Bihua Park
  sno: '1112'
  tot: '28'
- act: '1'
  ar: 五華街64號對面人行道(碧華國中旁)
  aren: No.64, Wuhua St. (opposite)
  bemp: '19'
  lat: '25.081725'
  lng: '121.493902'
  mday: '20180611070931'
  sarea: 三重區
  sareaen: Sanchong Dist.
  sbi: '33'
  sna: 五福里(五華街)
  snaen: Wufu Village (Wuhua St.)
  sno: '1113'
  tot: '52'
- act: '1'
  ar: 正義南路/同安東街(正義南路側公園廣場)
  aren: Zhengyi S. Rd./Tong’an E. St.
  bemp: '12'
  lat: '25.057320'
  lng: '121.499067'
  mday: '20180611070917'
  sarea: 三重區
  sareaen: Sanchong Dist.
  sbi: '18'
  sna: 同安公園
  snaen: Tong An Park
  sno: '1114'
  tot: '30'
- act: '1'
  ar: 中華路2段31號對面
  aren: No.31, Sec. 2, Zhonghua Rd. (opposite)
  bemp: '30'
  lat: '25.045951'
  lng: '121.453766'
  mday: '20180611070932'
  sarea: 新莊區
  sareaen: Xinzhuang Dist.
  sbi: '8'
  sna: 中華里(中華路二段)
  snaen: Zhonghua Village (Zhonghua Rd. Sec. 2 )
  sno: '1115'
  tot: '38'
- act: '1'
  ar: 中華路2段/自治街口人行道(中港大排東側)
  aren: Sec. 2, Zhonghua Rd/Zizhi St.
  bemp: '29'
  lat: '25.047855'
  lng: '121.453202'
  mday: '20180611070921'
  sarea: 新莊區
  sareaen: Xinzhuang Dist.
  sbi: '7'
  sna: 中華自治街口
  snaen: Zhonghua & Zizhi Intersection
  sno: '1116'
  tot: '36'
- act: '1'
  ar: 府中路31號至53號對面
  aren: No.31 to No.53, Fuzhong Rd. (opposite)
  bemp: '8'
  lat: '25.008999'
  lng: '121.458776'
  mday: '20180611070937'
  sarea: 板橋區
  sareaen: Banqiao Dist.
  sbi: '34'
  sna: 捷運府中站(3號出口)
  snaen: MRT Fuzhong Sta.(Exit.3)
  sno: '1117'
  tot: '42'
- act: '1'
  ar: 南雅南路二段122-23號前人行道
  aren: No.122-23, Sec. 2, Nanya S. Rd.
  bemp: '28'
  lat: '24.997830'
  lng: '121.452315'
  mday: '20180611070927'
  sarea: 板橋區
  sareaen: Banqiao Dist.
  sbi: '24'
  sna: 捷運亞東醫院站(2號出口)
  snaen: MRT Far Eastern Hospital Sta.(Exit.2)
  sno: '1118'
  tot: '52'
- act: '1'
  ar: 建中街116巷/建中街116巷3弄
  aren: Ln. 116, Jianzhong St./Aly. 3, Ln. 116, Jianzhong St.
  bemp: '21'
  lat: '25.037200'
  lng: '121.444946'
  mday: '20180611070945'
  sarea: 新莊區
  sareaen: Xinzhuang Dist.
  sbi: '20'
  sna: 新泰公園
  snaen: Xintai Park
  sno: '1119'
  tot: '42'
- act: '1'
  ar: 環河東路一段/竹林路75巷25弄
  aren: Sec. 1, Huanhe E. Rd./Aly. 25, Ln. 75, Zhulin Rd.
  bemp: '20'
  lat: '25.014999'
  lng: '121.520951'
  mday: '20180611070945'
  sarea: 永和區
  sareaen: Yonghe Dist.
  sbi: '18'
  sna: 上林里(環河東路一段)
  snaen: Shanglin Village (Huanhe E. Rd. Sec. 1 )
  sno: '1120'
  tot: '38'
- act: '1'
  ar: 仁義街258號至290號
  aren: No.258 to No.290, Renyi St.
  bemp: '9'
  lat: '25.086031'
  lng: '121.493774'
  mday: '20180611070926'
  sarea: 三重區
  sareaen: Sanchong Dist.
  sbi: '25'
  sna: 進安公園
  snaen: Jinan Park
  sno: '1121'
  tot: '34'
- act: '1'
  ar: 自強路4段/溪尾街
  aren: Sec. 4, Ziqiang Rd./Xiwei St.
  bemp: '16'
  lat: '25.078220'
  lng: '121.490157'
  mday: '20180611070930'
  sarea: 三重區
  sareaen: Sanchong Dist.
  sbi: '24'
  sna: 自強溪尾街口
  snaen: Ziqiang & Xiwei Intersection
  sno: '1122'
  tot: '40'
- act: '1'
  ar: 仁愛街/三和路3段11巷
  aren: Ren’ai St./Ln. 11, Sec. 3, Sanhe Rd.
  bemp: '43'
  lat: '25.070418'
  lng: '121.497126'
  mday: '20180611070920'
  sarea: 三重區
  sareaen: Sanchong Dist.
  sbi: '11'
  sna: 捷運三重國小站
  snaen: MRT Sanchong Elementary School Sta.
  sno: '1123'
  tot: '54'
- act: '1'
  ar: 鄉長路一段人行道側
  aren: Sec. 1, Xiangzhang Rd.
  bemp: '30'
  lat: '25.077493'
  lng: '121.666869'
  mday: '20180611070927'
  sarea: 汐止區
  sareaen: Xizhi Dist.
  sbi: '20'
  sna: 五堵火車站
  snaen: Wudu Railway Station
  sno: '1124'
  tot: '50'
- act: '1'
  ar: 捷運路131號至141號對面
  aren: No.131 to No.141, Jieyun Rd.
  bemp: '40'
  lat: '24.990804'
  lng: '121.506978'
  mday: '20180611070930'
  sarea: 中和區
  sareaen: Zhonghe Dist.
  sbi: '30'
  sna: 捷運南勢角站1號出口
  snaen: MRT Nanshijiao Sta.(Exit 1)
  sno: '1125'
  tot: '70'
- act: '1'
  ar: 長樂路125號對面公園通道
  aren: No.125, Changle Rd. (opposite)
  bemp: '21'
  lat: '25.087989'
  lng: '121.462192'
  mday: '20180611070917'
  sarea: 蘆洲區
  sareaen: Luzhou Dist.
  sbi: '21'
  sna: 柳堤公園
  snaen: Liuti Park
  sno: '1126'
  tot: '42'
- act: '1'
  ar: 貴興路119巷
  aren: Ln. 119, Guixing Rd.
  bemp: '22'
  lat: '25.001583'
  lng: '121.455524'
  mday: '20180611070941'
  sarea: 板橋區
  sareaen: Banqiao Dist.
  sbi: '14'
  sna: 新北市立圖書館總館
  snaen: New Taipei City Library
  sno: '1127'
  tot: '36'
- act: '1'
  ar: 永福街/下竹圍街
  aren: Yongfu St./Xiazhuwei St.
  bemp: '25'
  lat: '25.077714'
  lng: '121.480315'
  mday: '20180611070918'
  sarea: 三重區
  sareaen: Sanchong Dist.
  sbi: '11'
  sna: 永福國小
  snaen: Yong Fu Elementary School
  sno: '1128'
  tot: '36'
- act: '1'
  ar: 明志路二段324號對面人行道
  aren: No.324, Sec. 2, Mingzhi Rd. (opposite)
  bemp: '26'
  lat: '25.045729'
  lng: '121.426269'
  mday: '20180611070944'
  sarea: 泰山區
  sareaen: Taishan Dist.
  sbi: '20'
  sna: 明志國小
  snaen: Mingzhi Elementary School
  sno: '1129'
  tot: '46'
- act: '1'
  ar: 三民路615號對面人行道
  aren: No.615, Sanmin Rd. (opposite)
  bemp: '8'
  lat: '25.094306'
  lng: '121.460134'
  mday: '20180611070915'
  sarea: 蘆洲區
  sareaen: Luzhou Dist.
  sbi: '26'
  sna: 蘆洲三民公園
  snaen: Luchou Sanmin Park
  sno: '1130'
  tot: '34'
- act: '1'
  ar: 思源路131號至137號前人行道
  aren: No.131 to No.137, Siyuan Rd.
  bemp: '27'
  lat: '25.043536'
  lng: '121.459772'
  mday: '20180611070942'
  sarea: 新莊區
  sareaen: Xinzhuang Dist.
  sbi: '9'
  sna: 臺北醫院
  snaen: Taipei Hospital
  sno: '1131'
  tot: '36'
- act: '1'
  ar: 重新路三段/重安街
  aren: Sec. 3, Chongxin Rd./Chong’an St.
  bemp: '20'
  lat: '25.058443'
  lng: '121.489751'
  mday: '20180611070919'
  sarea: 三重區
  sareaen: Sanchong Dist.
  sbi: '15'
  sna: 重新重安街口
  snaen: Chongxi & Chongan Intersection
  sno: '1132'
  tot: '36'
- act: '1'
  ar: 安民街/安民街65巷
  aren: Anmin St./Ln. 65, Anmin St.
  bemp: '29'
  lat: '24.966775'
  lng: '121.516479'
  mday: '20180611070922'
  sarea: 新店區
  sareaen: Xindian Dist.
  sbi: '9'
  sna: 柴埕市民活動中心
  snaen: Chaicheng Civic Activity Center
  sno: '1133'
  tot: '38'
- act: '1'
  ar: 福樂街66號對面
  aren: No.66, Fule St. (opposite)
  bemp: '31'
  lat: '25.046446'
  lng: '121.457716'
  mday: '20180611070916'
  sarea: 新莊區
  sareaen: Xinzhuang Dist.
  sbi: '20'
  sna: 思賢國小
  snaen: Si Xian Elementary School
  sno: '1134'
  tot: '52'
- act: '1'
  ar: 萬板路/民生路二段
  aren: Wanban Rd./Sec. 2, Minsheng Rd.
  bemp: '5'
  lat: '25.020983'
  lng: '121.470821'
  mday: '20180611070924'
  sarea: 板橋區
  sareaen: Banqiao Dist.
  sbi: '33'
  sna: 莊敬公園
  snaen: Zhuangjing Park
  sno: '1135'
  tot: '38'
- act: '1'
  ar: 瓊泰路161號對面人行道
  aren: No.161, Qiongtai Rd. (opposite)
  bemp: '14'
  lat: '25.031278'
  lng: '121.443230'
  mday: '20180611070926'
  sarea: 新莊區
  sareaen: Xinzhuang Dist.
  sbi: '20'
  sna: 豐年國小
  snaen: Feng-Nian Elementary School
  sno: '1136'
  tot: '34'
- act: '1'
  ar: 長江路一段/新海路
  aren: Sec. 1, Changjiang Rd./Xinhai Rd.
  bemp: '16'
  lat: '25.02853'
  lng: '121.457367'
  mday: '20180611070926'
  sarea: 板橋區
  sareaen: Banqiao Dist.
  sbi: '19'
  sna: 新海長江路口
  snaen: Xinhai & Changjiang Intersection
  sno: '1137'
  tot: '36'
- act: '1'
  ar: 民生路二段250號前人行道
  aren: No.250, Sec. 2, Minsheng Rd.
  bemp: '16'
  lat: '25.023491'
  lng: '121.468559'
  mday: '20180611070944'
  sarea: 板橋區
  sareaen: Banqiao Dist.
  sbi: '34'
  sna: 捷運新埔站(4號出口)
  snaen: MRT Xinpu Sta.(Exit.4)
  sno: '1138'
  tot: '50'
- act: '1'
  ar: 國慶路49巷23號對面
  aren: Aly. 23, Ln. 49, Guoqing Rd. (opposite)
  bemp: '18'
  lat: '24.996430'
  lng: '121.459696'
  mday: '20180611070930'
  sarea: 板橋區
  sareaen: Banqiao Dist.
  sbi: '16'
  sna: 板橋仁愛公園
  snaen: Banqiao Renai Park
  sno: '1139'
  tot: '34'
- act: '1'
  ar: 泰林路2段257號旁人行道
  aren: No.257, Sec. 2, Tailin Rd.
  bemp: '5'
  lat: '25.062345'
  lng: '121.431475'
  mday: '20180611070924'
  sarea: 泰山區
  sareaen: Taishan Dist.
  sbi: '27'
  sna: 泰山國小
  snaen: Taishan Elementary School
  sno: '1140'
  tot: '32'
- act: '1'
  ar: 縣民大道一段/民族路
  aren: Sec. 1, Xianmin Blvd./Minzu Rd.
  bemp: '21'
  lat: '25.010012'
  lng: '121.461097'
  mday: '20180611070933'
  sarea: 板橋區
  sareaen: Banqiao Dist.
  sbi: '15'
  sna: 縣民民族路口
  snaen: Xianmin Blvd & Minzu Intersection
  sno: '1141'
  tot: '36'
- act: '1'
  ar: 民安西路370號至376號前
  aren: No.376 to No.376, Min’an W. Rd.
  bemp: '23'
  lat: '25.010795'
  lng: '121.427836'
  mday: '20180611070934'
  sarea: 新莊區
  sareaen: Xinzhuang Dist.
  sbi: '17'
  sna: 光華東帝士
  snaen: Guanghua dongdishi
  sno: '1142'
  tot: '40'
- act: '1'
  ar: 廣權路/廣和街
  aren: Guangquan Rd./Guanghe St.
  bemp: '18'
  lat: '24.991643'
  lng: '121.462872'
  mday: '20180611070926'
  sarea: 板橋區
  sareaen: Banqiao Dist.
  sbi: '20'
  sna: 廣福公園
  snaen: Guangfu Park
  sno: '1143'
  tot: '38'
- act: '1'
  ar: 陽明街251號至259號對面人行道
  aren: No.251 to No.259, Yangming St. (opposite)
  bemp: '17'
  lat: '25.025464'
  lng: '121.462633'
  mday: '20180611070942'
  sarea: 板橋區
  sareaen: Banqiao Dist.
  sbi: '37'
  sna: 板橋四維公園
  snaen: Banqiao Siwei Park
  sno: '1144'
  tot: '54'
- act: '1'
  ar: 中央路四段74號至76號對面人行道
  aren: No.74 to No.76, Sec. 4, Zhongyang Rd. (opposite)
  bemp: '38'
  lat: '24.959276'
  lng: '121.419008'
  mday: '20180611070939'
  sarea: 土城區
  sareaen: Tucheng Dist.
  sbi: '21'
  sna: 捷運頂埔站(2號出口)
  snaen: MRT Dingpu Sta.(Exit.2)
  sno: '1145'
  tot: '60'
- act: '1'
  ar: 龍濱路192號對面
  aren: No.192, Longbin Rd. (opposite)
  bemp: '16'
  lat: '25.073475'
  lng: '121.500977'
  mday: '20180611070932'
  sarea: 三重區
  sareaen: Sanchong Dist.
  sbi: '19'
  sna: 龍門龍濱路口
  snaen: Longmen & Longbin Intersection
  sno: '1146'
  tot: '36'
- act: '1'
  ar: 北宜路2段149號對面
  aren: No.149, Sec. 2, Beiyi Rd. (opposite)
  bemp: '29'
  lat: '24.953101'
  lng: '121.551813'
  mday: '20180611070939'
  sarea: 新店區
  sareaen: Xindian Dist.
  sbi: '10'
  sna: 青潭國小
  snaen: Qing-Tan Elementary School
  sno: '1147'
  tot: '40'
- act: '1'
  ar: 金城路一段/忠義路
  aren: Sec. 1, Jincheng Rd./Zhongyi Rd.
  bemp: '12'
  lat: '24.969399'
  lng: '121.440808'
  mday: '20180611070919'
  sarea: 土城區
  sareaen: Tucheng Dist.
  sbi: '22'
  sna: 金城忠義路口
  snaen: Jincheng & Zhongyi Intersection
  sno: '1148'
  tot: '34'
- act: '1'
  ar: 四川路二段245巷60號對面
  aren: No.60, Ln. 245, Sec. 2, Sichuan Rd.
  bemp: '8'
  lat: '24.991683'
  lng: '121.453320'
  mday: '20180611070923'
  sarea: 板橋區
  sareaen: Banqiao Dist.
  sbi: '30'
  sna: 華德公園
  snaen: Huade Park
  sno: '1149'
  tot: '38'
- act: '1'
  ar: 忠孝東路484號至488號前
  aren: No.484 to No.488, Zhongxiao E. Rd.
  bemp: '18'
  lat: '25.073682'
  lng: '121.666257'
  mday: '20180611070922'
  sarea: 汐止區
  sareaen: Xizhi Dist.
  sbi: '22'
  sna: 橋東里(忠孝東路)
  snaen: Qiaodong Village (Zhongxiao E. Rd.)
  sno: '1150'
  tot: '40'
- act: '1'
  ar: 文化路一段188巷56號
  aren: No.56, Ln. 188, Sec. 1, Wenhua Rd.
  bemp: '9'
  lat: '25.018559'
  lng: '121.467509'
  mday: '20180611070938'
  sarea: 板橋區
  sareaen: Banqiao Dist.
  sbi: '29'
  sna: 中山國中
  snaen: Zhong Shan Junior High School
  sno: '1151'
  tot: '38'
- act: '1'
  ar: 金城路1段/和平路
  aren: Sec. 1, Jincheng Rd./Heping Rd.
  bemp: '36'
  lat: '24.972631'
  lng: '121.443563'
  mday: '20180611070933'
  sarea: 土城區
  sareaen: Tucheng Dist.
  sbi: '15'
  sna: 捷運土城站(2號出口)
  snaen: MRT Tucheng Sta.(Exit 2)
  sno: '1152'
  tot: '52'
- act: '1'
  ar: 遠東路5號前人行道(四川路側)
  aren: No.5, Yuandong Rd.
  bemp: '29'
  lat: '24.998003'
  lng: '121.457355'
  mday: '20180611070941'
  sarea: 板橋區
  sareaen: Banqiao Dist.
  sbi: '19'
  sna: 四川遠東路口
  snaen: Sichuan & Yuandong Intersection
  sno: '1153'
  tot: '48'
- act: '1'
  ar: 員林街12巷對面
  aren: Ln. 12, Yuanlin St. (opposite)
  bemp: '10'
  lat: '24.977883'
  lng: '121.443237'
  mday: '20180611070920'
  sarea: 土城區
  sareaen: Tucheng Dist.
  sbi: '32'
  sna: 員林社區公園
  snaen: Yuanlin Community Park
  sno: '1154'
  tot: '42'
- act: '1'
  ar: 環河東路一段/光復街
  aren: Sec. 1, Huanhe E. Rd./Guangfu St.
  bemp: '19'
  lat: '25.017757'
  lng: '121.516809'
  mday: '20180611070920'
  sarea: 永和區
  sareaen: Yonghe Dist.
  sbi: '11'
  sna: 中正橋
  snaen: Zhongzheng Bridge
  sno: '1155'
  tot: '30'
- act: '1'
  ar: 汐萬路二段279號
  aren: No.279, Sec. 2, Xiwan Rd.
  bemp: '37'
  lat: '25.089027'
  lng: '121.645946'
  mday: '20180611070940'
  sarea: 汐止區
  sareaen: Xizhi Dist.
  sbi: '7'
  sna: 北港國小
  snaen: Beigang Elementary School
  sno: '1156'
  tot: '44'
- act: '1'
  ar: 中興路一段34號前(高架橋下停車場)
  aren: No.34, Sec. 1, Zhongxing Rd.
  bemp: '42'
  lat: '24.958605'
  lng: '121.538659'
  mday: '20180611070919'
  sarea: 新店區
  sareaen: Xindian Dist.
  sbi: '12'
  sna: 捷運新店站
  snaen: MRT Xindian Sta.
  sno: '1157'
  tot: '54'
- act: '1'
  ar: 錦和路163號
  aren: No.163, Jinhe Rd.
  bemp: '33'
  lat: '24.992086'
  lng: '121.490671'
  mday: '20180611070925'
  sarea: 中和區
  sareaen: Zhonghe Dist.
  sbi: '2'
  sna: 錦和運動公園
  snaen: Jinhe Sports Park
  sno: '1158'
  tot: '36'
- act: '1'
  ar: 新樹路627號對面
  aren: No.627, Xinshu Rd. (opposite)
  bemp: '19'
  lat: '25.003383'
  lng: '121.433154'
  mday: '20180611070920'
  sarea: 新莊區
  sareaen: Xinzhuang Dist.
  sbi: '13'
  sna: 新樹公園
  snaen: Xinshu Park
  sno: '1159'
  tot: '32'
- act: '1'
  ar: 中山路三段130號
  aren: No.130, Sec. 3, Zhongshan Rd.
  bemp: '21'
  lat: '25.006367'
  lng: '121.474223'
  mday: '20180611070929'
  sarea: 中和區
  sareaen: Zhonghe Dist.
  sbi: '19'
  sna: 中和環球購物中心
  snaen: Zhonghe Global Mall
  sno: '1160'
  tot: '40'
- act: '1'
  ar: 楓江路26巷26號前人行道
  aren: No.26, Ln. 26, Fengjiang Rd.
  bemp: '17'
  lat: '25.061938'
  lng: '121.434939'
  mday: '20180611070929'
  sarea: 泰山區
  sareaen: Taishan Dist.
  sbi: '19'
  sna: 楓樹腳公園
  snaen: Fengshujiao Park
  sno: '1161'
  tot: '36'
- act: '1'
  ar: 忠孝路一段37號
  aren: No.37, Sec. 1, Zhongxiao Rd.
  bemp: '13'
  lat: '25.071988'
  lng: '121.491200'
  mday: '20180611070932'
  sarea: 三重區
  sareaen: Sanchong Dist.
  sbi: '23'
  sna: 厚德公園
  snaen: Houde Park
  sno: '1162'
  tot: '36'
- act: '1'
  ar: 四川路二段6號對面
  aren: No.6, Sec. 2, Sichuan Rd. (opposite)
  bemp: '20'
  lat: '24.996183'
  lng: '121.456476'
  mday: '20180611070939'
  sarea: 板橋區
  sareaen: Banqiao Dist.
  sbi: '19'
  sna: 板橋信義公園
  snaen: Banqiao Xinyi Park
  sno: '1163'
  tot: '40'
- act: '1'
  ar: 國光路76號旁
  aren: No.76, Guoguang Rd.
  bemp: '19'
  lat: '25.017755'
  lng: '121.458308'
  mday: '20180611070921'
  sarea: 板橋區
  sareaen: Banqiao Dist.
  sbi: '15'
  sna: 國光里(國光路)
  snaen: Guoguang Village (Guoguang Rd.)
  sno: '1164'
  tot: '34'
- act: '1'
  ar: 民生路三段/長江路一段(64高架橋下方)
  aren: Sec. 3, Minsheng Rd./Sec. 1, Changjiang Rd.
  bemp: '19'
  lat: '25.030904'
  lng: '121.463596'
  mday: '20180611070920'
  sarea: 板橋區
  sareaen: Banqiao Dist.
  sbi: '17'
  sna: 民生長江路口
  snaen: Minsheng & Changjiang Intersection
  sno: '1165'
  tot: '36'
- act: '1'
  ar: 民德路296號對面停車格位
  aren: No.296, Minde Rd. (opposite)
  bemp: '11'
  lat: '24.995482'
  lng: '121.467525'
  mday: '20180611070942'
  sarea: 中和區
  sareaen: Zhonghe Dist.
  sbi: '25'
  sna: 華福市民活動中心
  snaen: Huafu Civil Activity Center
  sno: '1166'
  tot: '36'
- act: '1'
  ar: 合安一路/大觀路二段153巷
  aren: 1st Rd./Ln. 153, Sec. 2, Daguan Rd.
  bemp: '16'
  lat: '24.999329'
  lng: '121.446343'
  mday: '20180611070928'
  sarea: 板橋區
  sareaen: Banqiao Dist.
  sbi: '18'
  sna: 浮洲合宜住宅(合安一路)
  snaen: Fujhou Appropriate House ( He-an 1st. Road )
  sno: '1167'
  tot: '34'
- act: '1'
  ar: 建福路/建福路49巷
  aren: Jianfu Rd./Ln. 49, Jianfu Rd.
  bemp: '23'
  lat: '25.027694'
  lng: '121.426685'
  mday: '20180611070936'
  sarea: 新莊區
  sareaen: Xinzhuang Dist.
  sbi: '15'
  sna: 建福公園
  snaen: Jianfu Park
  sno: '1168'
  tot: '38'
- act: '1'
  ar: 民族路408巷/復興路323巷
  aren: Ln. 408, Minzu Rd./Ln. 323, Fuxing Rd.
  bemp: '24'
  lat: '25.093949'
  lng: '121.473913'
  mday: '20180611070942'
  sarea: 蘆洲區
  sareaen: Luzhou Dist.
  sbi: '28'
  sna: 水河里活動中心
  snaen: Shuei He Village Activity Center
  sno: '1169'
  tot: '52'
- act: '1'
  ar: 金城路三段/延和路(土城台電變電站)
  aren: Sec. 3, Jincheng Rd./Yanhe Rd.
  bemp: '6'
  lat: '24.989155'
  lng: '121.470454'
  mday: '20180611070924'
  sarea: 土城區
  sareaen: Tucheng Dist.
  sbi: '32'
  sna: 金城延和路口
  snaen: Jincheng & Yanhe Intersection
  sno: '1170'
  tot: '38'
- act: '1'
  ar: 中正路325巷/中正路341巷
  aren: Ln. 325, Zhongzheng Rd./Ln. 341, Zhongzheng Rd.
  bemp: '19'
  lat: '25.019828'
  lng: '121.453852'
  mday: '20180611070930'
  sarea: 板橋區
  sareaen: Banqiao Dist.
  sbi: '17'
  sna: 國光公園
  snaen: Guoguang Park
  sno: '1171'
  tot: '36'
- act: '1'
  ar: 後站街6巷11號對面
  aren: No.11, Ln. 6, Houzhan St. (opposite)
  bemp: '22'
  lat: '24.992553'
  lng: '121.424652'
  mday: '20180611070938'
  sarea: 樹林區
  sareaen: Shulin Dist.
  sbi: '30'
  sna: 樹林火車站(後站)
  snaen: Shulin Railway Rear Station
  sno: '1172'
  tot: '52'
- act: '1'
  ar: 千歲街59號
  aren: No.59, Qiansui St.
  bemp: '18'
  lat: '24.997856'
  lng: '121.426360'
  mday: '20180611070923'
  sarea: 樹林區
  sareaen: Shulin Dist.
  sbi: '14'
  sna: 文林國小
  snaen: Wenlin Elementary School
  sno: '1173'
  tot: '32'
- act: '1'
  ar: 裕民路195巷旁
  aren: Ln. 195, Yumin Rd.
  bemp: '20'
  lat: '24.983671'
  lng: '121.454211'
  mday: '20180611070932'
  sarea: 土城區
  sareaen: Tucheng Dist.
  sbi: '24'
  sna: 土城綜合體育場
  snaen: Tucheng Sports Field
  sno: '1174'
  tot: '44'
- act: '1'
  ar: 新站路1號對面
  aren: No.1, Xinzhan Rd. (opposite)
  bemp: '20'
  lat: '25.011498'
  lng: '121.467415'
  mday: '20180611070925'
  sarea: 板橋區
  sareaen: Banqiao Dist.
  sbi: '12'
  sna: 板橋福德公園
  snaen: Banqiao Fude Park
  sno: '1175'
  tot: '32'
- act: '1'
  ar: 保安街2段259號對面
  aren: No.259, Sec. 2, Bao’an St. (opposite)
  bemp: '16'
  lat: '25.005412'
  lng: '121.413157'
  mday: '20180611070943'
  sarea: 樹林區
  sareaen: Shulin Dist.
  sbi: '16'
  sna: 光華公園
  snaen: Guanghua Park
  sno: '1176'
  tot: '32'
- act: '1'
  ar: 備前街/復興路372巷口
  aren: Beiqian St./Ln. 372, Fuxing Rd.
  bemp: '22'
  lat: '24.986391'
  lng: '121.414770'
  mday: '20180611070927'
  sarea: 樹林區
  sareaen: Shulin Dist.
  sbi: '14'
  sna: 樹林大安活動中心
  snaen: Shulin Da'an Activity Center
  sno: '1177'
  tot: '36'
- act: '1'
  ar: 三民路8號前
  aren: No.8, Sanmin Rd.
  bemp: '9'
  lat: '25.082229'
  lng: '121.476004'
  mday: '20180611070943'
  sarea: 蘆洲區
  sareaen: Luzhou Dist.
  sbi: '27'
  sna: 三民中山一路口
  snaen: Sanmin & Zhongshan 1st Rd. Intersection
  sno: '1178'
  tot: '36'
- act: '1'
  ar: 民生路33號對面人行道
  aren: No.33, Minsheng Rd. (opposite)
  bemp: '20'
  lat: '25.051762'
  lng: '121.431669'
  mday: '20180611070925'
  sarea: 泰山區
  sareaen: Taishan Dist.
  sbi: '13'
  sna: 義學國小
  snaen: Yixue Elementary School
  sno: '1179'
  tot: '34'
- act: '1'
  ar: 如意街/集賢路口
  aren: Ruyi St./Jixian Rd.
  bemp: '13'
  lat: '25.089840'
  lng: '121.487987'
  mday: '20180611070922'
  sarea: 三重區
  sareaen: Sanchong Dist.
  sbi: '21'
  sna: 自然公園
  snaen: Natural Park
  sno: '1180'
  tot: '34'
- act: '1'
  ar: 板林路/溪北路
  aren: Banlin Rd./Xibei Rd.
  bemp: '28'
  lat: '24.990555'
  lng: '121.426350'
  mday: '20180611070939'
  sarea: 板橋區
  sareaen: Banqiao Dist.
  sbi: '18'
  sna: 板林溪北路口
  snaen: Banlin & Xibei Intersection
  sno: '1181'
  tot: '46'
- act: '1'
  ar: 莊敬路/文化路2段182巷
  aren: Zhuangjing Rd./Ln. 182, Sec. 2, Wenhua Rd.
  bemp: '18'
  lat: '25.026542'
  lng: '121.472279'
  mday: '20180611070923'
  sarea: 板橋區
  sareaen: Banqiao Dist.
  sbi: '22'
  sna: 新北市藝文中心
  snaen: New Taipei City Art Center
  sno: '1182'
  tot: '40'
- act: '1'
  ar: 大安路/中央路三段
  aren: Da’an Rd./Sec. 3, Zhongyang Rd.
  bemp: '12'
  lat: '24.965619'
  lng: '121.432610'
  mday: '20180611070928'
  sarea: 土城區
  sareaen: Tucheng Dist.
  sbi: '20'
  sna: 大安中央路口
  snaen: Da'an & Zhongyang Intersection
  sno: '1183'
  tot: '32'
- act: '1'
  ar: 復興路280號
  aren: No.280, Fuxing Rd.
  bemp: '11'
  lat: '24.990393'
  lng: '121.502397'
  mday: '20180611070918'
  sarea: 中和區
  sareaen: Zhonghe Dist.
  sbi: '17'
  sna: 中和地政事務所
  snaen: Zhonghe Land Office
  sno: '1184'
  tot: '28'
- act: '1'
  ar: 工專路111號
  aren: No.111, Gongzhuan Rd.
  bemp: '25'
  lat: '24.980672'
  lng: '121.507652'
  mday: '20180611070929'
  sarea: 中和區
  sareaen: Zhonghe Dist.
  sbi: '16'
  sna: 華夏科技大學
  snaen: Hwa Hsia University of Technology
  sno: '1185'
  tot: '42'
- act: '1'
  ar: 仁義路15號對面
  aren: No.15, Renyi Rd. (opposite)
  bemp: '27'
  lat: '25.055188'
  lng: '121.432128'
  mday: '20180611070926'
  sarea: 泰山區
  sareaen: Taishan Dist.
  sbi: '7'
  sna: 同興公園
  snaen: Tongxing Park
  sno: '1186'
  tot: '34'
- act: '1'
  ar: 全興路214號對面
  aren: No.214, Quanxing Rd. (opposite)
  bemp: '18'
  lat: '25.055865'
  lng: '121.434262'
  mday: '20180611070935'
  sarea: 泰山區
  sareaen: Taishan Dist.
  sbi: '12'
  sna: 新五泰國民運動中心
  snaen: Xinwutai  Civil Sports Center
  sno: '1187'
  tot: '30'
- act: '1'
  ar: 溪崑二街145號
  aren: No.145, Xikun 2nd St.
  bemp: '16'
  lat: '24.986723'
  lng: '121.426820'
  mday: '20180611070926'
  sarea: 板橋區
  sareaen: Banqiao Dist.
  sbi: '18'
  sna: 溪洲公園停車場
  snaen: Xizhou Park
  sno: '1188'
  tot: '34'
- act: '1'
  ar: 大觀路三段212巷70號對面
  aren: No.70, Aly. 212, Sec. 3, Daguan Rd. (opposite)
  bemp: '20'
  lat: '24.993406'
  lng: '121.429636'
  mday: '20180611070923'
  sarea: 板橋區
  sareaen: Banqiao Dist.
  sbi: '18'
  sna: 崑崙公園
  snaen: Kunlun Park
  sno: '1189'
  tot: '38'
- act: '1'
  ar: 海山路46號對面機車格位
  aren: No.46, Haishan Rd. (opposite)
  bemp: '36'
  lat: '24.986923'
  lng: '121.449335'
  mday: '20180611070921'
  sarea: 土城區
  sareaen: Tucheng Dist.
  sbi: '4'
  sna: 捷運海山站(3號出口)
  snaen: MRT Haishan Sta.(Exit 3)
  sno: '1190'
  tot: '40'
- act: '1'
  ar: 五工二路/五工三路50巷
  aren: Wugong 2nd Rd./Ln. 50, Wugong 3rd Rd.
  bemp: '24'
  lat: '25.065234'
  lng: '121.461115'
  mday: '20180611070941'
  sarea: 新莊區
  sareaen: Xinzhuang Dist.
  sbi: '14'
  sna: 興化公園
  snaen: Xinhua Park
  sno: '1191'
  tot: '38'
- act: '1'
  ar: 三民路二段35巷口
  aren: Ln. 35, Sec. 2, Sanmin Rd.
  bemp: '30'
  lat: '25.017953'
  lng: '121.479375'
  mday: '20180611070937'
  sarea: 板橋區
  sareaen: Banqiao Dist.
  sbi: '4'
  sna: 潤泰社區
  snaen: Runtai Community
  sno: '1192'
  tot: '36'
- act: '1'
  ar: 新樹路499號前人行道(西盛館)
  aren: No.499, Xinshu Rd.
  bemp: '14'
  lat: '25.011905'
  lng: '121.432713'
  mday: '20180611070934'
  sarea: 新莊區
  sareaen: Xinzhuang Dist.
  sbi: '16'
  sna: 西盛館
  snaen: Xi Sheng Guan
  sno: '1193'
  tot: '30'
- act: '1'
  ar: 秀朗路三段 / 成功路二段
  aren: Sec. 3, Xiulang Rd./Sec. 2, Chenggong Rd.
  bemp: '12'
  lat: '24.995821'
  lng: '121.526550'
  mday: '20180611070926'
  sarea: 中和區
  sareaen: Zhonghe Dist.
  sbi: '28'
  sna: 秀朗成功路口
  snaen: Xiulang & Chenggong Intersection
  sno: '1194'
  tot: '40'
- act: '1'
  ar: 中正路441號前人行道
  aren: No.441, Zhongzheng Rd.
  bemp: '35'
  lat: '25.024903'
  lng: '121.454310'
  mday: '20180611070930'
  sarea: 板橋區
  sareaen: Banqiao Dist.
  sbi: '19'
  sna: 板橋國中
  snaen: Banqiao Junior High School
  sno: '1195'
  tot: '54'
- act: '1'
  ar: 永豐街221號
  aren: No.221, Yongfeng St.
  bemp: '11'
  lat: '25.021127'
  lng: '121.476853'
  mday: '20180611070936'
  sarea: 板橋區
  sareaen: Banqiao Dist.
  sbi: '21'
  sna: 永豐公園活動中心
  snaen: Yongfeng  Park Activity Center
  sno: '1196'
  tot: '32'
- act: '1'
  ar: 明志路二段177號
  aren: No.177, Sec. 2, Mingzhi Rd.
  bemp: '3'
  lat: '25.050479'
  lng: '121.427667'
  mday: '20180611070939'
  sarea: 泰山區
  sareaen: Taishan Dist.
  sbi: '33'
  sna: 義仁市民活動中心
  snaen: Yiren civil activity center
  sno: '1197'
  tot: '36'
- act: '1'
  ar: 建國路420號對面人行道
  aren: No.420, Jianguo Rd.(opposite)
  bemp: '15'
  lat: '24.951734'
  lng: '121.342963'
  mday: '20180611070923'
  sarea: 鶯歌區
  sareaen: Yingge Dist.
  sbi: '19'
  sna: 鶯歌國中
  snaen: Yingge Junior High School
  sno: '1198'
  tot: '34'
- act: '1'
  ar: 中正路/中正路746巷
  aren: Zhongzheng Rd./Ln. 746, Zhongzheng Rd.
  bemp: '31'
  lat: '25.022760'
  lng: '121.413053'
  mday: '20180611070932'
  sarea: 新莊區
  sareaen: Xinzhuang Dist.
  sbi: '29'
  sna: 捷運迴龍站(3號出口)
  snaen: MRT Huilong Sta.(Exit 3)
  sno: '1199'
  tot: '60'
- act: '1'
  ar: 重新路五段515號
  aren: No.515, Sec. 5, Chongxin Rd.
  bemp: '12'
  lat: '25.046068'
  lng: '121.470987'
  mday: '20180611070941'
  sarea: 三重區
  sareaen: Sanchong Dist.
  sbi: '37'
  sna: 捷運先嗇宮站(2號出口)
  snaen: MRT Xianse Temple Sta.(Exit.2)
  sno: '1200'
  tot: '50'
- act: '1'
  ar: 仁愛路55號對側人行道
  aren: No.55, Ren’ai Rd., Yingge Dist.(opposite)
  bemp: '32'
  lat: '24.955591'
  lng: '121.354376'
  mday: '20180611070915'
  sarea: 鶯歌區
  sareaen: Yingge Dist.
  sbi: '26'
  sna: 鶯歌火車站(仁愛路)
  snaen: Yingge Railway Station(Ren’ai  Rd.)
  sno: '1201'
  tot: '58'
- act: '0'
  ar: 鶯歌區建國路/育英街口機車停車場內
  aren: Jianguo Rd./Yuying St.
  bemp: '0'
  lat: '24.952761'
  lng: '121.347193'
  mday: '20180425082836'
  sarea: 鶯歌區
  sareaen: Yingge Dist.
  sbi: '0'
  sna: 建國育英路口
  snaen: Chienkuo & Yuying Intersection
  sno: '1202'
  tot: '50'
- act: '1'
  ar: 鶯歌區尖山埔路/國慶街(停車場內)
  aren: Jianshanpu Rd./Guoqing St.
  bemp: '25'
  lat: '24.952226'
  lng: '121.351035'
  mday: '20180611070935'
  sarea: 鶯歌區
  sareaen: Yingge Dist.
  sbi: '15'
  sna: 鶯歌陶瓷老街
  snaen: Yingge ceramics old street
  sno: '1203'
  tot: '44'
- act: '1'
  ar: 新莊區中環路二段423號(對面橋下)
  aren: No.423, Sec. 2, Zhonghuan Rd.(opposite)
  bemp: '16'
  lat: '25.045676'
  lng: '121.442133'
  mday: '20180611070944'
  sarea: 新莊區
  sareaen: Xinzhuang Dist.
  sbi: '24'
  sna: 立泰里(中環路二段)
  snaen: Litai Village(Zhonghuan Rd. Sec. 2)
  sno: '1204'
  tot: '40'
- act: '1'
  ar: 淡水區民生路108號旁公園通道(竹圍公園)
  aren: No.108, Minsheng Rd.
  bemp: '4'
  lat: '25.138234'
  lng: '121.463395'
  mday: '20180611070933'
  sarea: 淡水區
  sareaen: Tamsui Dist.
  sbi: '24'
  sna: 竹圍公園
  snaen: Chuwei Park
  sno: '1205'
  tot: '28'
- act: '1'
  ar: 鶯歌區文化路407號
  aren: No.407, Wenhua Rd.
  bemp: '17'
  lat: '24.949549'
  lng: '121.352832'
  mday: '20180611070935'
  sarea: 鶯歌區
  sareaen: Yingge Dist.
  sbi: '22'
  sna: 新北市立鶯歌陶瓷博物館
  snaen: New Taipei City Yingge Ceramics  Museum
  sno: '1206'
  tot: '40'
- act: '1'
  ar: 板橋區合宜路/樂群路口
  aren: Heyi Rd./Lequn Rd.
  bemp: '30'
  lat: '24.9969909'
  lng: '121.4465092'
  mday: '20180611070931'
  sarea: 板橋區
  sareaen: Banqiao Dist.
  sbi: '16'
  sna: 浮洲合宜住宅(樂群路)
  snaen: Fuzhou Apartment(Lequn Rd.)
  sno: '1207'
  tot: '46'
- act: '1'
  ar: 鶯歌區尖山路161號對面
  aren: No.161, Jianshan Rd.(opposite)
  bemp: '22'
  lat: '24.948220'
  lng: '121.345767'
  mday: '20180611070921'
  sarea: 鶯歌區
  sareaen: Yingge Dist.
  sbi: '22'
  sna: 尖山公園
  snaen: Jianshan Park
  sno: '1208'
  tot: '44'
- act: '1'
  ar: 茄苳路84號(崇德橋東里民活動中心前)
  aren: No.84, Jiadong Rd.
  bemp: '6'
  lat: '25.070512'
  lng: '121.667002'
  mday: '20180611070920'
  sarea: 汐止區
  sareaen: Xizhi Dist.
  sbi: '20'
  sna: 崇德橋東活動中心
  snaen: Chungde-Ciaodong Activity Center
  sno: '1209'
  tot: '26'
- act: '1'
  ar: 新北市樹林區中山路二段80-1號對面機車停車格
  aren: No.80-1, Sec. 2, Zhongshan Rd.(opposite)
  bemp: '15'
  lat: '24.983768'
  lng: '121.415032'
  mday: '20180611070929'
  sarea: 樹林區
  sareaen: Shulin Dist.
  sbi: '23'
  sna: 樹林區衛生所
  snaen: Shulin District Public Health Center
  sno: '1210'
  tot: '38'
- act: '1'
  ar: 信義路73巷2號對面公園人行道
  aren: No.2, Ln. 73, Xinyi Rd.(oppsite)
  bemp: '13'
  lat: '25.079969'
  lng: '121.476205'
  mday: '20180611070932'
  sarea: 蘆洲區
  sareaen: Luzhou Dist.
  sbi: '23'
  sna: 溪墘公園
  snaen: Si Cian Park
  sno: '1211'
  tot: '36'
- act: '1'
  ar: 育德街13號對面人行道
  aren: No.13, Yude St.(oppsite)
  bemp: '28'
  lat: '24.970656'
  lng: '121.392602'
  mday: '20180611070920'
  sarea: 樹林區
  sareaen: Shulin Dist.
  sbi: '6'
  sna: 育德國小
  snaen: Yude Elementary School
  sno: '1212'
  tot: '34'
- act: '1'
  ar: 國凱街130號對面
  aren: No.130, Guokai St.(oppsite)
  bemp: '19'
  lat: '24.980335'
  lng: '121.423104'
  mday: '20180611070922'
  sarea: 樹林區
  sareaen: Shulin Dist.
  sbi: '21'
  sna: 彭福國小
  snaen: Pengfu Elementary School
  sno: '1213'
  tot: '40'
- act: '1'
  ar: 民治街120號對面人行道
  aren: No.120, Minzhi St.(oppsite)
  bemp: '14'
  lat: '25.003435'
  lng: '121.475345'
  mday: '20180611070942'
  sarea: 中和區
  sareaen: Zhonghe Dist.
  sbi: '22'
  sna: 民享藝文特區
  snaen: Minxiang Art Zone
  sno: '1214'
  tot: '36'
- act: '1'
  ar: 中華路 / 樹中二街口(學校側門對面人行道)
  aren: Zhonghua Rd./Shuzhong 2nd St.(oppsite)
  bemp: '26'
  lat: '24.983567'
  lng: '121.423601'
  mday: '20180611070919'
  sarea: 樹林區
  sareaen: Shulin Dist.
  sbi: '14'
  sna: 億光電子(樹林高中)
  snaen: Everlight Electronics Co.,Ltd (Shulin Senior High School)
  sno: '1215'
  tot: '40'
- act: '1'
  ar: 承天路11號對面
  aren: No.11, Chengtian Rd.(oppsite)
  bemp: '37'
  lat: '24.965783'
  lng: '121.436227'
  mday: '20180611071000'
  sarea: 土城區
  sareaen: Tucheng Dist.
  sbi: '7'
  sna: 捷運永寧站(2號出口)
  snaen: MRT Yungning Sta.(EXIT 2)
  sno: '1216'
  tot: '44'
- act: '1'
  ar: 中正東路一段3巷2號對面路側(亞太飯店旁)
  aren: No.2, Ln. 3, Sec. 1, Zhongzheng E. Rd.(oppsite)
  bemp: '35'
  lat: '25.165090'
  lng: '121.450831'
  mday: '20180611070930'
  sarea: 淡水區
  sareaen: Tamsui Dist.
  sbi: '13'
  sna: 竿蓁市民活動中心
  snaen: Ganzhen Civil Activity Center
  sno: '1217'
  tot: '48'
- act: '1'
  ar: 樹德街35號對面(公園內縮空間)
  aren: No.35, Shude St.(oppsite)
  bemp: '13'
  lat: '24.991853'
  lng: '121.421371'
  mday: '20180611070917'
  sarea: 樹林區
  sareaen: Shulin Dist.
  sbi: '25'
  sna: 長壽親子公園
  snaen: Changshou Parent-child Park
  sno: '1218'
  tot: '38'
- act: '1'
  ar: 中山北路二段189巷2號對面人行道(新市國小)
  aren: No.2, Ln. 189, Sec. 2, Zhongshan N. Rd.(oppsite)
  bemp: '15'
  lat: '25.185313'
  lng: '121.444332'
  mday: '20180611070942'
  sarea: 淡水區
  sareaen: Tamsui Dist.
  sbi: '21'
  sna: 新市國小
  snaen: Xinshi Elementary School
  sno: '1219'
  tot: '36'
- act: '1'
  ar: 中山路150號(圖書館內停車場)
  aren: No.150, Zhongshan Rd.
  bemp: '26'
  lat: '24.957195'
  lng: '121.349704'
  mday: '20180611070929'
  sarea: 鶯歌區
  sareaen: Yingge Dist.
  sbi: '9'
  sna: 新北市立圖書館鶯歌分館
  snaen: New Taipei City Library Yingge Branch
  sno: '1220'
  tot: '36'
- act: '1'
  ar: 明德路2號(德音國小成泰路路側人行道)
  aren: No.2, Mingde Rd.(oppsite)
  bemp: '30'
  lat: '25.071515'
  lng: '121.435670'
  mday: '20180611063241'
  sarea: 五股區
  sareaen: Wugu Dist.
  sbi: '6'
  sna: 德音國小
  snaen: De-Yin Elementary School
  sno: '1221'
  tot: '36'
- act: '1'
  ar: 中山北路一段/新春街(東南側)(公園籃球場前人行道)
  aren: Sec. 1, Zhongshan N. Rd./Xinchun St.
  bemp: '7'
  lat: '25.180345'
  lng: '121.444742'
  mday: '20180611070921'
  sarea: 淡水區
  sareaen: Tamsui Dist.
  sbi: '33'
  sna: 中山北新春街口
  snaen: Zhongshan North & Xinchun Intersection
  sno: '1222'
  tot: '40'
- act: '1'
  ar: 北新路116號對面人行道(正德國中)
  aren: No.116, Beixin Rd.(oppsite)
  bemp: '12'
  lat: '25.178512'
  lng: '121.447874'
  mday: '20180611070943'
  sarea: 淡水區
  sareaen: Tamsui Dist.
  sbi: '28'
  sna: 正德國中
  snaen: Zhengde Junior High School
  sno: '1223'
  tot: '40'
- act: '1'
  ar: 金城路2段266號
  aren: No.266, Sec. 2, Jincheng Rd.
  bemp: '25'
  lat: '24.984102'
  lng: '121.458595'
  mday: '20180611070940'
  sarea: 土城區
  sareaen: Tucheng Dist.
  sbi: '17'
  sna: 金城立體停車場
  snaen: Jincheng Parking Lot
  sno: '1224'
  tot: '42'
- act: '1'
  ar: 五谷王北街77號(後方停車場旁人行道)
  aren: No.77, Wuguwang N. St.
  bemp: '33'
  lat: '25.051190'
  lng: '121.476007'
  mday: '20180611070924'
  sarea: 三重區
  sareaen: Sanchong Dist.
  sbi: '7'
  sna: 先嗇宮
  snaen: Xianse Temple
  sno: '1225'
  tot: '40'
- act: '1'
  ar: 板橋區海山路23號對面
  aren: No.23, Haishan Rd.(oppsite)
  bemp: '23'
  lat: '25.009061'
  lng: '121.468352'
  mday: '20180611070943'
  sarea: 板橋區
  sareaen: Banqiao Dist.
  sbi: '17'
  sna: 板橋第一運動場
  snaen: Banqiao First Stadium
  sno: '1226'
  tot: '40'
- act: '1'
  ar: 光興街/文化南路口(西南側)(光興街路側)
  aren: Guangxing St./Wenhua S. Rd.
  bemp: '21'
  lat: '25.060339'
  lng: '121.500103'
  mday: '20180611070924'
  sarea: 三重區
  sareaen: Sanchong Dist.
  sbi: '15'
  sna: 光興國小
  snaen: Guangxing Elementary School
  sno: '1227'
  tot: '36'
- act: '1'
  ar: 安興路67號對面空地 (高架橋下)
  aren: No.67, Anxing Rd.(oppsite)
  bemp: '23'
  lat: '24.975317'
  lng: '121.515687'
  mday: '20180611070932'
  sarea: 新店區
  sareaen: Xindian Dist.
  sbi: '15'
  sna: 安和市民活動中心
  snaen: Anhe Activity Center
  sno: '1228'
  tot: '38'
- act: '1'
  ar: 景安路與板南路口(西南側三角公園)
  aren: Jing’an Rd./Bannan Rd.
  bemp: '11'
  lat: '24.992249'
  lng: '121.504443'
  mday: '20180611070923'
  sarea: 中和區
  sareaen: Zhonghe Dist.
  sbi: '19'
  sna: 景安板南路口
  snaen: Jing’an / Bannan Intersection
  sno: '1229'
  tot: '30'
- act: '1'
  ar: 瓊林路1號旁(碧江公園旁)
  aren: No.1, Qionglin Rd.
  bemp: '26'
  lat: '25.032300'
  lng: '121.450011'
  mday: '20180611070916'
  sarea: 新莊區
  sareaen: Xinzhuang Dist.
  sbi: '23'
  sna: 新月橋
  snaen: Crescent Bridge
  sno: '1230'
  tot: '50'
- act: '1'
  ar: 民生街74號對面人行道
  aren: No.74, Minsheng St.(oppsite)
  bemp: '18'
  lat: '25.065295'
  lng: '121.490450'
  mday: '20180611070933'
  sarea: 三重區
  sareaen: Sanchong Dist.
  sbi: '24'
  sna: 修德國小
  snaen: Sioude Elementary School
  sno: '1231'
  tot: '42'
- act: '1'
  ar: 福祥路90巷7弄1號對側空間
  aren: No.1, Aly. 7, Ln. 90, Fuxiang Rd.(oppsite)
  bemp: '12'
  lat: '25.005933'
  lng: '121.499565'
  mday: '20180611070932'
  sarea: 中和區
  sareaen: Zhonghe Dist.
  sbi: '26'
  sna: 福祥里(中和溝)
  snaen: Fuxiang Village (Zhonghe Ditch)
  sno: '1232'
  tot: '38'
- act: '1'
  ar: 濱海路一段125~219號前人行道
  aren: No.125 ~ No.219, Sec. 1, Binhai Rd.
  bemp: '14'
  lat: '25.189448'
  lng: '121.438708'
  mday: '20180611070941'
  sarea: 淡水區
  sareaen: Tamsui Dist.
  sbi: '25'
  sna: 濱海義山路口
  snaen: Binhai & Yishan Intersection
  sno: '1233'
  tot: '40'
- act: '1'
  ar: 永安南路二段334號(對面人行道)
  aren: No.334, Sec. 2, Yong’an S. Rd.
  bemp: '20'
  lat: '25.082935'
  lng: '121.456728'
  mday: '20180611070918'
  sarea: 蘆洲區
  sareaen: Luzhou Dist.
  sbi: '19'
  sna: 鴨母港抽水站
  snaen: Yamugang Pumping Station
  sno: '1234'
  tot: '40'
- act: '1'
  ar: 公明街73巷6號前(淡水老街廣場)
  aren: No.6, Ln. 73, Gongming St.
  bemp: '85'
  lat: '25.168826'
  lng: '121.444183'
  mday: '20180611070920'
  sarea: 淡水區
  sareaen: Tamsui Dist.
  sbi: '21'
  sna: 捷運淡水站
  snaen: MRT Tamsui Station
  sno: '1235'
  tot: '106'
- act: '1'
  ar: 安成街26號至36號對面
  aren: No.26 ~ No.36, Ancheng St.(oppsite)
  bemp: '12'
  lat: '24.961147'
  lng: '121.509988'
  mday: '20180611070935'
  sarea: 新店區
  sareaen: Xindian Dist.
  sbi: '24'
  sna: 安成安德街口
  snaen: Ancheng & Ande Intersection
  sno: '1236'
  tot: '36'
- act: '1'
  ar: 中山北路2段381巷2號
  aren: No.2, Ln. 381, Sec. 2, Zhongshan N. Rd.
  bemp: '28'
  lat: '25.186496'
  lng: '121.443261'
  mday: '20180611070928'
  sarea: 淡水區
  sareaen: Tamsui Dist.
  sbi: '18'
  sna: 淡水國民運動中心
  snaen: Tamsui Sports Center
  sno: '1237'
  tot: '46'
- act: '1'
  ar: 民權路105號-115號前人行道
  aren: No.105 ~ No.115, Minquan Rd.
  bemp: '41'
  lat: '25.137658'
  lng: '121.460112'
  mday: '20180611070922'
  sarea: 淡水區
  sareaen: Tamsui Dist.
  sbi: '5'
  sna: 捷運竹圍站
  snaen: MRT Zhuwei Station
  sno: '1238'
  tot: '46'
- act: '1'
  ar: 公園街/仁福街 (龍門公園人行道上)
  aren: Gongyuan St. / Renfu St.
  bemp: '20'
  lat: '25.074815'
  lng: '121.498484'
  mday: '20180611070941'
  sarea: 三重區
  sareaen: Sanchong Dist.
  sbi: '16'
  sna: 龍門公園
  snaen: Longmen Park
  sno: '1239'
  tot: '38'
- act: '1'
  ar: 濱海中山北路口西南側人行道(家樂福廣場前人行道)
  aren: Binhai Rd. / Sec. 2, Zhongshan N. Rd.
  bemp: '11'
  lat: '25.188887'
  lng: '121.443505'
  mday: '20180611070936'
  sarea: 淡水區
  sareaen: Tamsui Dist.
  sbi: '23'
  sna: 濱海中山北路口
  snaen: Binhai & Chungshan North Intersection
  sno: '1240'
  tot: '34'
- act: '1'
  ar: 永安南路二段150號(對側人行道)
  aren: No.150, Sec. 2, Yong’an S. Rd.
  bemp: '10'
  lat: '25.078599'
  lng: '121.462228'
  mday: '20180611070947'
  sarea: 蘆洲區
  sareaen: Luzhou Dist.
  sbi: '26'
  sna: 永安圖書館
  snaen: Yong-an Library
  sno: '1241'
  tot: '36'
- act: '1'
  ar: 樹新路251號對面(西盛廣場人行道)
  aren: No.251, Shuxin Rd.(oppsite)
  bemp: '23'
  lat: '25.000894'
  lng: '121.431485'
  mday: '20180611070942'
  sarea: 新莊區
  sareaen: Xinzhuang Dist.
  sbi: '11'
  sna: 西盛廣場
  snaen: XiSheng Square
  sno: '1242'
  tot: '34'
- act: '1'
  ar: 中山路17號(公所旁徒步區)
  aren: No.17, Zhongshan Rd.
  bemp: '26'
  lat: '24.934187'
  lng: '121.369158'
  mday: '20180611070943'
  sarea: 三峽區
  sareaen: Sanxia Dist.
  sbi: '16'
  sna: 三峽區公所(三峽老街)
  snaen: Sanxia District Office(Sanxia Old Street)
  sno: '1243'
  tot: '42'
- act: '1'
  ar: 仁愛路二段559號前方人行道
  aren: No.559, Sec. 2, Ren’ai Rd.
  bemp: '28'
  lat: '25.077118'
  lng: '121.374258'
  mday: '20180611070916'
  sarea: 林口區
  sareaen: Linkou Dist.
  sbi: '21'
  sna: 仁愛文化二路口
  snaen: Ren-ai & Wenhua 2nd Rd. Intersection
  sno: '1244'
  tot: '50'
- act: '1'
  ar: 大觀路三段133巷3號對面廣場
  aren: No.3, Ln. 133, Sec. 3, Daguan Rd.(oppsite)
  bemp: '25'
  lat: '24.993901'
  lng: '121.432880'
  mday: '20180611070936'
  sarea: 板橋區
  sareaen: Banqiao Dist.
  sbi: '16'
  sna: 崑崙活力廣場
  snaen: Kunlun Square
  sno: '1245'
  tot: '42'
- act: '1'
  ar: 車路頭街139巷135號(對面人行道)
  aren: No.135, Ln. 139, Chelutou St.(oppsite)
  bemp: '12'
  lat: '25.076133'
  lng: '121.484304'
  mday: '20180611070938'
  sarea: 三重區
  sareaen: Sanchong Dist.
  sbi: '25'
  sna: 永盛公園
  snaen: YongSheng Park
  sno: '1246'
  tot: '38'
- act: '1'
  ar: 信義路319巷22號(旁邊機車格前)
  aren: No.22, Ln. 319, Xinyi Rd.(side)
  bemp: '16'
  lat: '25.085621'
  lng: '121.477694'
  mday: '20180611070921'
  sarea: 蘆洲區
  sareaen: Luzhou Dist.
  sbi: '16'
  sna: 鷺江廣場
  snaen: Lu Jiang square
  sno: '1247'
  tot: '32'
- act: '1'
  ar: 安慶街149巷21號 (對面六張公園人行道)
  aren: No.21, Ln. 149, Anqing St.(oppsite)
  bemp: '10'
  lat: '25.069661'
  lng: '121.494048'
  mday: '20180611070932'
  sarea: 三重區
  sareaen: Sanchong Dist.
  sbi: '26'
  sna: 六張公園
  snaen: Liuzhang Park
  sno: '1248'
  tot: '36'
- act: '1'
  ar: 中山路250-1號前方機車停車格
  aren: No.250-1, Zhongshan Rd.
  bemp: '25'
  lat: '25.079592'
  lng: '121.385587'
  mday: '20180611070943'
  sarea: 林口區
  sareaen: Linkou Dist.
  sbi: '11'
  sna: 中山佳林路口
  snaen: Chungshan & Chalin Intersection
  sno: '1249'
  tot: '36'
- act: '1'
  ar: 學勤路大學路口(面校門右側人行道)
  aren: Xueqin Rd. / Daxue Rd. intersection
  bemp: '28'
  lat: '24.945553'
  lng: '121.373260'
  mday: '20180611070932'
  sarea: 三峽區
  sareaen: Sanxia Dist.
  sbi: '29'
  sna: 國立臺北大學(三峽校區)
  snaen: National Taipei University(Sanxia Campus)
  sno: '1250'
  tot: '58'
- act: '1'
  ar: 仁愛路一段378號(林口區公所旁機車停車格)
  aren: No.378, Sec. 1, Ren’ai Rd.
  bemp: '16'
  lat: '25.076742'
  lng: '121.388181'
  mday: '20180611070935'
  sarea: 林口區
  sareaen: Linkou Dist.
  sbi: '18'
  sna: 林口區公所
  snaen: Linkou District Office
  sno: '1251'
  tot: '34'
- act: '1'
  ar: 麗園一街/麗園一街11巷(對面人行道)
  aren: Liyuan 1st St. / Ln. 11, Liyuan 1st St. intersection
  bemp: '18'
  lat: '25.070428'
  lng: '121.376882'
  mday: '20180611070934'
  sarea: 林口區
  sareaen: Linkou Dist.
  sbi: '24'
  sna: 新麗園社區
  snaen: Xinliyuan Community
  sno: '1252'
  tot: '42'
- act: '1'
  ar: 中正路879之16號門口(中國信託前的公車站旁)
  aren: No.879-16, Zhongzheng Rd.
  bemp: '16'
  lat: '25.025940'
  lng: '121.417694'
  mday: '20180611070924'
  sarea: 新莊區
  sareaen: Xinzhuang Dist.
  sbi: '25'
  sna: 中正富國路口
  snaen: Zhongzheng & Fuguo Intersection
  sno: '1253'
  tot: '42'
- act: '1'
  ar: 東榮街91巷(市場旁人行道)
  aren: Ln. 91, Dongrong St.(Side)
  bemp: '28'
  lat: '24.981146'
  lng: '121.416844'
  mday: '20180611070917'
  sarea: 樹林區
  sareaen: Shulin Dist.
  sbi: '8'
  sna: 大同國小
  snaen: Datong Elementary School
  sno: '1254'
  tot: '36'
- act: '1'
  ar: 西雲路165號圖書館旁空地
  aren: No.165, Xiyun Rd.
  bemp: '28'
  lat: '25.094784'
  lng: '121.446741'
  mday: '20180611070926'
  sarea: 五股區
  sareaen: Wugu Dist.
  sbi: '14'
  sna: 新北市立圖書館五股成功分館
  snaen: New Taipei City Library Wugu-Chenggong Branch
  sno: '1255'
  tot: '42'
- act: '1'
  ar: 中和區民德路188 號(立體停車場前方人行空間)
  aren: No.188, Minde Rd.
  bemp: '14'
  lat: '24.999098'
  lng: '121.468345'
  mday: '20180611070939'
  sarea: 中和區
  sareaen: Zhonghe Dist.
  sbi: '18'
  sna: 民德立體停車場
  snaen: Minde Parking Lot
  sno: '1256'
  tot: '32'
- act: '1'
  ar: 公園路59號(頂好超市側門)
  aren: No.59, Gongyuan Rd.
  bemp: '20'
  lat: '25.069123'
  lng: '121.367761'
  mday: '20180611070931'
  sarea: 林口區
  sareaen: Linkou Dist.
  sbi: '14'
  sna: 麗林公有市場
  snaen: LiLin Market
  sno: '1257'
  tot: '34'
- act: '1'
  ar: 中山路二段東興路口(火車站右側人行道)
  aren: Sec. 2, Zhongshan Rd. / Dongxing St. intersection
  bemp: '12'
  lat: '24.980236'
  lng: '121.408605'
  mday: '20180611070924'
  sarea: 樹林區
  sareaen: Shulin Dist.
  sbi: '21'
  sna: 南樹林火車站
  snaen: Shulin South Station
  sno: '1258'
  tot: '34'
- act: '1'
  ar: 中正三路235~237號(對面人行道)
  aren: No.235-237, Zhongzheng 3rd Rd.(oppsite)
  bemp: '20'
  lat: '24.939095'
  lng: '121.334639'
  mday: '20180611070945'
  sarea: 鶯歌區
  sareaen: Yingge Dist.
  sbi: '20'
  sna: 新北市立鶯歌高級工商職業學校
  snaen: New Taipei Municipal Yinggle Vocational High School
  sno: '1259'
  tot: '40'
- act: '1'
  ar: 中平路/榮華路2段
  aren: Zhongping Rd./ Sec. 2, Ronghua Rd. intersection
  bemp: '38'
  lat: '25.055969'
  lng: '121.444423'
  mday: '20180611070921'
  sarea: 新莊區
  sareaen: Xinzhuang Dist.
  sbi: '6'
  sna: 行政院新莊聯合辦公大樓
  snaen: Xinzhuang Joint Office Tower, Executive Yuan
  sno: '1260'
  tot: '44'
- act: '1'
  ar: 佳園路三段128號(活動中心左側人行道)
  aren: No.128, Sec. 3, Jiayuan Rd.
  bemp: '28'
  lat: '24.950576'
  lng: '121.386183'
  mday: '20180611070924'
  sarea: 樹林區
  sareaen: Shulin Dist.
  sbi: '11'
  sna: 柑園五里聯合活動中心
  snaen: 5 Villages in Ganyuan Joint Activity Center
  sno: '1261'
  tot: '40'
- act: '1'
  ar: 莒光路181號對側公園人行道旁
  aren: No.181, Juguang Rd.(oppsite)
  bemp: '10'
  lat: '24.999132'
  lng: '121.472513'
  mday: '20180611070936'
  sarea: 中和區
  sareaen: Zhonghe Dist.
  sbi: '28'
  sna: 中和自強公園
  snaen: Zhonghe Ziqiang Park
  sno: '1262'
  tot: '38'
- act: '1'
  ar: 中山路/富貴路口(富貴路人行道上)
  aren: Zhongshan Rd. / Fugui Rd. intersection
  bemp: '15'
  lat: '25.083156'
  lng: '121.378464'
  mday: '20180611070938'
  sarea: 林口區
  sareaen: Linkou Dist.
  sbi: '21'
  sna: 富貴森林公園
  snaen: Fugui Park
  sno: '1263'
  tot: '36'
- act: '1'
  ar: 自強三街3號旁人行道
  aren: No.3, Ziqiang 3rd St.
  bemp: '16'
  lat: '25.078126'
  lng: '121.397208'
  mday: '20180611070932'
  sarea: 林口區
  sareaen: Linkou Dist.
  sbi: '20'
  sna: 林口自強公園
  snaen: Linkou Ziqiang Park
  sno: '1264'
  tot: '36'
- act: '1'
  ar: 鶯桃路182巷96弄36-38號對側
  aren: No.36-38, Aly. 96, Ln. 182, Yingtao Rd.(oppsite)
  bemp: '13'
  lat: '24.956661'
  lng: '121.339645'
  mday: '20180611070932'
  sarea: 鶯歌區
  sareaen: Yingge Dist.
  sbi: '23'
  sna: 永昌里兒一公園
  snaen: Yongchang Village Children Park (No.1)
  sno: '1265'
  tot: '36'
- act: '1'
  ar: 文化三路/八德路口 (1號出口旁)
  aren: Sec. 2, Wenhua 3rd Rd. / Bade Rd. intersection
  bemp: '44'
  lat: '25.065970'
  lng: '121.361962'
  mday: '20180611070930'
  sarea: 林口區
  sareaen: Linkou Dist.
  sbi: '16'
  sna: 捷運林口站(1號出口)
  snaen: MRT Linkou Sta. (Exit 1)
  sno: '1266'
  tot: '60'
- act: '1'
  ar: 南興路62號旁(南興公園內)
  aren: No.62, Nanxing Rd.
  bemp: '11'
  lat: '25.059779'
  lng: '121.652549'
  mday: '20180611070922'
  sarea: 汐止區
  sareaen: Xizhi Dist.
  sbi: '23'
  sna: 南興公園
  snaen: Nanxing Park
  sno: '1267'
  tot: '34'
- act: '1'
  ar: 忠孝一路/民族路61巷交叉口
  aren: Zhongxiao 1st Rd. / Ln. 61, Minzu Rd. intersection
  bemp: '8'
  lat: '25.073427'
  lng: '121.362340'
  mday: '20180611070931'
  sarea: 林口區
  sareaen: Linkou Dist.
  sbi: '26'
  sna: 立言公園
  snaen: Liyan Park
  sno: '1268'
  tot: '34'
- act: '1'
  ar: 篤行路二段131巷35號(對面人行道)
  aren: No.35, Ln. 131, Sec. 2, Duxing Rd.
  bemp: '22'
  lat: '24.990060'
  lng: '121.432281'
  mday: '20180611070942'
  sarea: 板橋區
  sareaen: Banqiao Dist.
  sbi: '14'
  sna: 溪北公園
  snaen: Xibei Park
  sno: '1269'
  tot: '36'
- act: '1'
  ar: 中央路四段285號
  aren: No.285, Sec. 4, Zhongyang Rd.
  bemp: '17'
  lat: '24.952762'
  lng: '121.411701'
  mday: '20180611070941'
  sarea: 土城區
  sareaen: Tucheng Dist.
  sbi: '17'
  sna: 頂新祖田市民活動中心
  snaen: Dingxin-Zutian Civic Activity Center
  sno: '1270'
  tot: '34'
- act: '1'
  ar: 明志路三段353號旁公園
  aren: No.353, Sec. 3, Mingzhi Rd.
  bemp: '16'
  lat: '25.034961'
  lng: '121.421928'
  mday: '20180611070940'
  sarea: 泰山區
  sareaen: Taishan Dist.
  sbi: '17'
  sna: 貴和市民活動中心
  snaen: Guihe Civil Activity Center
  sno: '1271'
  tot: '34'
- act: '1'
  ar: 中央路四段205號(頂埔國小校門口)
  aren: No.205, Sec. 4, Zhongyang Rd.
  bemp: '25'
  lat: '24.956343'
  lng: '121.414421'
  mday: '20180611070925'
  sarea: 土城區
  sareaen: Tucheng Dist.
  sbi: '9'
  sna: 頂埔國小
  snaen: Dingpu Elementary School
  sno: '1272'
  tot: '34'
- act: '1'
  ar: 光明路71號(左側)
  aren: No.71, Guangming Rd., Sanxia Dist.
  bemp: '11'
  lat: '24.928438'
  lng: '121.375921'
  mday: '20180611070941'
  sarea: 三峽區
  sareaen: Sanxia Dist.
  sbi: '21'
  sna: 三峽區礁溪行政中心
  snaen: Chiaohsi Office of Sanxia District
  sno: '1273'
  tot: '32'
- act: '1'
  ar: 林口路77號對面林口國小旁人行道
  aren: No.77, Linkou Rd.(oppsite)
  bemp: '25'
  lat: '25.080533'
  lng: '121.389307'
  mday: '20180611070922'
  sarea: 林口區
  sareaen: Linkou Dist.
  sbi: '11'
  sna: 林口國小
  snaen: Linkou Elementary School
  sno: '1274'
  tot: '36'
- act: '1'
  ar: 南勢二街154號旁
  aren: No.154, Nanshi 2nd St.(Side)
  bemp: '14'
  lat: '25.074035'
  lng: '121.358924'
  mday: '20180611070943'
  sarea: 林口區
  sareaen: Linkou Dist.
  sbi: '20'
  sna: 南勢市民活動中心
  snaen: Nanshih Civil Activity Center
  sno: '1275'
  tot: '34'
- act: '1'
  ar: 明德路一段240巷1號(雜貨店前人行道)
  aren: No.1, Ln. 240, Sec. 1, Mingde Rd.
  bemp: '13'
  lat: '24.977837'
  lng: '121.459751'
  mday: '20180611070929'
  sarea: 土城區
  sareaen: Tucheng Dist.
  sbi: '23'
  sna: 青山廣場
  snaen: Qingshan Square
  sno: '1276'
  tot: '36'
- act: '1'
  ar: 文化一路一段/仁愛路二段口(林口社區運動公園文化一路側人行道)
  aren: Sec. 1, Wenhua 1st Rd./Sec. 2, Ren’ai Rd.(intersection)
  bemp: '14'
  lat: '25.074150'
  lng: '121.377001'
  mday: '20180611070920'
  sarea: 林口區
  sareaen: Linkou Dist.
  sbi: '22'
  sna: 林口社區運動公園
  snaen: Linkou Community Sports Park
  sno: '1277'
  tot: '36'
- act: '1'
  ar: 新莊路214巷(捷運新莊站2號出口旁邊)
  aren: Ln. 214, Xinzhuang Rd.
  bemp: '32'
  lat: '25.036075'
  lng: '121.452792'
  mday: '20180611070926'
  sarea: 新莊區
  sareaen: Xinzhuang Dist.
  sbi: '8'
  sna: 捷運新莊站 ( 2號出口 )
  snaen: MRT Xinzhuang Sta. (Exit 2)
  sno: '1278'
  tot: '40'
- act: '1'
  ar: 俊英街俊保路口(西北側人行道)
  aren: Junying St./Junbao Rd.(intersecion)
  bemp: '17'
  lat: '25.009150'
  lng: '121.425183'
  mday: '20180611070942'
  sarea: 樹林區
  sareaen: Shulin Dist.
  sbi: '13'
  sna: 俊英俊保路口
  snaen: Junying & Junbao Intersection
  sno: '1279'
  tot: '30'
- act: '1'
  ar: 成泰路三段公園路口東側洲子洋公園路側原機車停車格
  aren: Sec. 3, Chengtai Rd./Gongyuan Rd.(intersecion)
  bemp: '21'
  lat: '25.094701'
  lng: '121.448105'
  mday: '20180611070930'
  sarea: 五股區
  sareaen: Wugu Dist.
  sbi: '17'
  sna: 洲子洋公園
  snaen: Zhouziyang Park
  sno: '1280'
  tot: '38'
- act: '1'
  ar: 學成路大義路口(西北側人行道)
  aren: Xuecheng Rd./Dayi Rd.(intersecion)
  bemp: '23'
  lat: '24.945099'
  lng: '121.378671'
  mday: '20180611070936'
  sarea: 樹林區
  sareaen: Shulin Dist.
  sbi: '22'
  sna: 學成大義路口
  snaen: Xuecheng & Dayi Intersection
  sno: '1281'
  tot: '46'
- act: '1'
  ar: 中正路/思源路(東北側)(捷運頭前庄站1號出口旁廣場)
  aren: Zhongzheng Rd./Siyuan Rd.(intersection)
  bemp: '28'
  lat: '25.039365'
  lng: '121.460856'
  mday: '20180611070940'
  sarea: 新莊區
  sareaen: Xinzhuang Dist.
  sbi: '23'
  sna: 捷運頭前庄站(1號出口)
  snaen: MRT Touqianzhuang Sta.(Exit.1)
  sno: '1282'
  tot: '52'
- act: '1'
  ar: 文化路57號(立體停車場地下一樓)
  aren: No.57, Wenhua Rd.(Basement 1)
  bemp: '7'
  lat: '25.172485'
  lng: '121.438806'
  mday: '20180611070941'
  sarea: 淡水區
  sareaen: Tamsui Dist.
  sbi: '25'
  sna: 文化機車立體停車場
  snaen: Wenhua Motorcycle Parking Lot
  sno: '1283'
  tot: '32'
- act: '1'
  ar: 成泰路三段成洲八路口東北側成德公園路側
  aren: Sec. 3, Chengtai Rd./Chengzhou 8th Rd.(intersecion)
  bemp: '26'
  lat: '25.105052'
  lng: '121.452963'
  mday: '20180611070944'
  sarea: 五股區
  sareaen: Wugu Dist.
  sbi: '10'
  sna: 成德公園
  snaen: Chengde Park
  sno: '1284'
  tot: '36'
- act: '1'
  ar: 民權路101號旁(植栽帶)
  aren: No.101, Minquan Rd.
  bemp: '21'
  lat: '25.081673'
  lng: '121.372687'
  mday: '20180611070943'
  sarea: 林口區
  sareaen: Linkou Dist.
  sbi: '17'
  sna: 頭湖國小
  snaen: Touhou Elementary School
  sno: '1285'
  tot: '38'
- act: '1'
  ar: 金城路三段19-30號(路側人行道)
  aren: No.19-30, Sec. 3, Jincheng Rd.(Side)
  bemp: '20'
  lat: '24.986691'
  lng: '121.465481'
  mday: '20180611070931'
  sarea: 土城區
  sareaen: Tucheng Dist.
  sbi: '18'
  sna: 金城立德路口
  snaen: Jincheng & Lide Intersection
  sno: '1286'
  tot: '38'
- act: '1'
  ar: 復興路372號(對面公車亭後方人行道)
  aren: No.372, Fuxing Rd.(oppsite)
  bemp: '35'
  lat: '24.938912'
  lng: '121.363553'
  mday: '20180611070943'
  sarea: 三峽區
  sareaen: Sanxia Dist.
  sbi: '30'
  sna: 恩主公醫院
  snaen: En Chu Kong Hospital
  sno: '1287'
  tot: '66'
- act: '1'
  ar: 景平路634-2號 ( 中和區公所正門機車格位 )
  aren: No.634-2, Jingping Rd.
  bemp: '18'
  lat: '24.998558'
  lng: '121.500533'
  mday: '20180611070922'
  sarea: 中和區
  sareaen: Zhonghe Dist.
  sbi: '14'
  sna: 中和區公所
  snaen: Zhonghe District Office
  sno: '1288'
  tot: '32'
- act: '1'
  ar: 忠三街8號(活動中心旁籃球場空間)
  aren: No.8, Zhong 3rd St.
  bemp: '13'
  lat: '25.078202'
  lng: '121.624493'
  mday: '20180611070942'
  sarea: 汐止區
  sareaen: Xizhi Dist.
  sbi: '23'
  sna: 忠山市民活動中心
  snaen: Jhongshan Civil Activity Center
  sno: '1289'
  tot: '36'
- act: '1'
  ar: 永福街197巷6之1號
  aren: No.6-1, Ln. 197, Yongfu St.
  bemp: '21'
  lat: '25.074629'
  lng: '121.478162'
  mday: '20180611070936'
  sarea: 三重區
  sareaen: Sanchong Dist.
  sbi: '9'
  sna: 三重永豐公園
  snaen: San chong Yongfeng Park
  sno: '1290'
  tot: '32'
- act: '1'
  ar: 大觀路一段51號(郵局旁邊)
  aren: No.51, Ln. 197, Sec. 1, Daguan Rd.
  bemp: '27'
  lat: '25.007502'
  lng: '121.448000'
  mday: '20180611070927'
  sarea: 板橋區
  sareaen: Banqiao Dist.
  sbi: '13'
  sna: 臺灣藝術大學
  snaen: National Taiwan University of Arts
  sno: '1291'
  tot: '40'
- act: '1'
  ar: 中華路一段136巷對面
  aren: Ln. 136, Sec. 1, Zhonghua Rd.(oppsite)
  bemp: '11'
  lat: '25.040766'
  lng: '121.452459'
  mday: '20180611070919'
  sarea: 新莊區
  sareaen: Xinzhuang Dist.
  sbi: '29'
  sna: 新莊體育館
  snaen: Xinzhuang Gymnasium
  sno: '1292'
  tot: '40'
- act: '1'
  ar: 國光路123號 ( 耕莘醫院外路側汽機車格位 )
  aren: No.123, Guoguang Rd.
  bemp: '19'
  lat: '25.011232'
  lng: '121.517701'
  mday: '20180611070926'
  sarea: 永和區
  sareaen: Yonghe Dist.
  sbi: '13'
  sna: 永和耕莘醫院
  snaen: Yonghe Cardinal Tien Hospital
  sno: '1293'
  tot: '32'
- act: '1'
  ar: 三福街83-89號(對面人行道)
  aren: No.83-89, Sanfu St.(oppsite)
  bemp: '8'
  lat: '25.016405'
  lng: '121.407135'
  mday: '20180611070925'
  sarea: 樹林區
  sareaen: Shulin Dist.
  sbi: '26'
  sna: 三多國小
  snaen: Sanduo Elementary School
  sno: '1294'
  tot: '34'
- act: '1'
  ar: 永安北路2段/永安北路2段35巷
  aren: Sec. 2, Yong’an N. Rd./ Ln. 35, Sec. 2, Yong’an N. Rd.(intersection)
  bemp: '19'
  lat: '25.082273'
  lng: '121.482236'
  mday: '20180611070940'
  sarea: 蘆洲區
  sareaen: Luzhou Dist.
  sbi: '10'
  sna: 永安兒童公園
  snaen: Yongan Children's Park
  sno: '1295'
  tot: '30'
- act: '1'
  ar: 連城路460號(大門旁右側人行空間)
  aren: No.460, Liancheng Rd.
  bemp: '16'
  lat: '24.993700'
  lng: '121.478230'
  mday: '20180611070918'
  sarea: 中和區
  sareaen: Zhonghe Dist.
  sbi: '20'
  sna: 新北市立中和高級中學
  snaen: New Taipei Municipal Zhonghe Senior High School
  sno: '1296'
  tot: '36'
- act: '1'
  ar: 文化二路一段/文化二路一段309巷
  aren: Sec. 1, Wenhua 2nd Rd./ Ln. 309, Sec. 1, Wenhua 2nd Rd.(intersecion)
  bemp: '19'
  lat: '25.072864'
  lng: '121.369480'
  mday: '20180611070929'
  sarea: 林口區
  sareaen: Linkou Dist.
  sbi: '21'
  sna: 扶輪公園
  snaen: Fulun Park
  sno: '1297'
  tot: '40'
- act: '1'
  ar: 安邦街與連勝街口(交叉路口西北側)
  aren: Anbang St./Liansheng St.(intersection)
  bemp: '11'
  lat: '24.996867'
  lng: '121.496647'
  mday: '20180611070933'
  sarea: 中和區
  sareaen: Zhonghe Dist.
  sbi: '23'
  sna: 安邦公園
  snaen: Anbang Park
  sno: '1298'
  tot: '34'
- act: '1'
  ar: 仁愛二路與民族路口交叉口
  aren: Ren’ai 2nd Rd./ Minzu Rd.(intersection)
  bemp: '18'
  lat: '25.076441'
  lng: '121.367223'
  mday: '20180611070922'
  sarea: 林口區
  sareaen: Linkou Dist.
  sbi: '16'
  sna: 立德公園
  snaen: Lide Park
  sno: '1299'
  tot: '34'
- act: '1'
  ar: 中山路一段161號(東側出口)
  aren: No.161, Sec. 1, Zhongshan Rd.
  bemp: '34'
  lat: '25.012614'
  lng: '121.466455'
  mday: '20180611070930'
  sarea: 板橋區
  sareaen: Banqiao Dist.
  sbi: '26'
  sna: 新北市政府(新站路)
  snaen: New Taipei City Hall ( Xinzhan Rd)
  sno: '1300'
  tot: '60'
- act: '1'
  ar: 土城區明德路一段72號
  aren: No.72, Sec. 1, Mingde Rd.
  bemp: '17'
  lat: '24.982756'
  lng: '121.465444'
  mday: '20180611070930'
  sarea: 土城區
  sareaen: Tucheng Dist.
  sbi: '17'
  sna: 清水高中
  snaen: Qing Shui Senior High School
  sno: '1301'
  tot: '34'
- act: '1'
  ar: 新站路/站前路口(十字路口西側)
  aren: Xinzhan Rd. / Zhanqian Rd.(intersection)
  bemp: '60'
  lat: '25.015519'
  lng: '121.463735'
  mday: '20180611070921'
  sarea: 板橋區
  sareaen: Banqiao Dist.
  sbi: '37'
  sna: 板橋車站
  snaen: Banqiao Station
  sno: '1302'
  tot: '98'
- act: '1'
  ar: 樹林區中正路188-6號
  aren: No.188-6,Zhongzheng Rd.,Shulin Dist.
  bemp: '26'
  lat: '25.004186'
  lng: '121.422847'
  mday: '20180611070844'
  sarea: 樹林區
  sareaen: Shulin Dist.
  sbi: '8'
  sna: 樹林國民運動中心
  snaen: Shulin  Civil  Sports Center
  sno: '1303'
  tot: '34'
- act: '1'
  ar: 新莊區 中正路510之1號
  aren: No.510-1, Zhongzheng Rd., Xinzhuang Dist.
  bemp: '5'
  lat: '25.033025'
  lng: '121.436484'
  mday: '20180611070918'
  sarea: 新莊區
  sareaen: Xinzhuang Dist.
  sbi: '37'
  sna: 捷運輔大站(4號出口)
  snaen: MRT Fu Jen University Sta.(Exit.4)
  sno: '1304'
  tot: '42'
- act: '1'
  ar: 新莊區民安東路48號前人行道
  aren: No.48 Min’an E. Rd., Xinzhuang Dist.
  bemp: '15'
  lat: '25.020774'
  lng: '121.429556'
  mday: '20180611070941'
  sarea: 新莊區
  sareaen: Xinzhuang Dist.
  sbi: '20'
  sna: 民安東民全街口
  snaen: Min’an E.& Minquan Intersection
  sno: '1305'
  tot: '36'
- act: '1'
  ar: 三重區中興北街175巷10號對面(路側)
  aren: No.10, Ln. 175,Zhongxing N. St., Sanchong Dist.
  bemp: '22'
  lat: '25.055970'
  lng: '121.471327'
  mday: '20180611070931'
  sarea: 三重區
  sareaen: Sanchong Dist.
  sbi: '9'
  sna: 中興北街175巷口
  snaen: Zhongxing N. St. 175 Ln
  sno: '1306'
  tot: '32'
- act: '1'
  ar: 汐止區仁愛路153號門口(路側)
  aren: No.153, Ren’ai Rd., Xizhi Dist.
  bemp: '28'
  lat: '25.064819'
  lng: '121.663885'
  mday: '20180611070943'
  sarea: 汐止區
  sareaen: Xizhi Dist.
  sbi: '16'
  sna: 仁愛路151巷口
  snaen: Ren Ai Rd 151 Ln
  sno: '1307'
  tot: '44'
- act: '1'
  ar: 五股區中興路四段19-1號(對面人行道)
  aren: No.19-1, Sec. 4, Zhongxing Rd., Wugu Dist(oppsite)
  bemp: '20'
  lat: '25.082494'
  lng: '121.439555'
  mday: '20180611070935'
  sarea: 五股區
  sareaen: Wugu Dist.
  sbi: '20'
  sna: 五股工商立體停車場
  snaen: Wugu Gongshang Parking Towe
  sno: '1308'
  tot: '40'
- act: '1'
  ar: 土城區三民路23巷8弄(公園裡面)
  aren: Aly. 8, Ln. 23, Sanmin Rd., Tucheng Dist
  bemp: '6'
  lat: '24.963289'
  lng: '121.419672'
  mday: '20180611070935'
  sarea: 土城區
  sareaen: Tucheng Dist.
  sbi: '27'
  sna: 沛陂社區公園
  snaen: Peipo Community Park
  sno: '1309'
  tot: '34'
- act: '1'
  ar: 中和區中山路二段2巷27號(對面公園)
  aren: No.27, Ln. 2, Sec. 2, Zhongshan Rd., Zhonghe Dist(oppsite)
  bemp: '8'
  lat: '25.006927'
  lng: '121.503171'
  mday: '20180611070934'
  sarea: 中和區
  sareaen: Zhonghe Dist.
  sbi: '26'
  sna: 佳和公園
  snaen: Chiahe Park
  sno: '1310'
  tot: '34'
- act: '1'
  ar: 板橋區溪頭街352號前面人行道
  aren: No.352, Xitou St., Banqiao Dist.
  bemp: '20'
  lat: '25.033086'
  lng: '121.468403'
  mday: '20180611070916'
  sarea: 板橋區
  sareaen: Banqiao Dist.
  sbi: '20'
  sna: 溪頭公園
  snaen: Xitou Park
  sno: '1311'
  tot: '40'
- act: '1'
  ar: 新莊區龍安路72號對面(公園人行道)
  aren: No.72, Long’an Rd., Xinzhuang Dist.(oppsite)
  bemp: '11'
  lat: '25.021447'
  lng: '121.416497'
  mday: '20180611070924'
  sarea: 新莊區
  sareaen: Xinzhuang Dist.
  sbi: '28'
  sna: 龍鳳公園
  snaen: Longfeng Park
  sno: '1312'
  tot: '40'
- act: '1'
  ar: 新莊區新北大道7段312號(人行道)
  aren: No.312, Sec. 7, New Taipei Blvd., Xinzhuang Dist
  bemp: '23'
  lat: '25.030186'
  lng: '121.413402'
  mday: '20180611070928'
  sarea: 新莊區
  sareaen: Xinzhuang Dist.
  sbi: '23'
  sna: 伊吉邦社區
  snaen: Yijibang
  sno: '1313'
  tot: '46'
- act: '1'
  ar: 樹林區福興街17號(活動中心前機車格)
  aren: No.17, Fuxing St., Shulin Dist
  bemp: '15'
  lat: '25.016361'
  lng: '121.404257'
  mday: '20180611070827'
  sarea: 樹林區
  sareaen: Shulin Dist.
  sbi: '19'
  sna: 三多第1市民活動中心
  snaen: First of Sanduo Civil Activity Center
  sno: '1314'
  tot: '34'
- act: '1'
  ar: 新北市土城區學府路一段241號
  aren: No.241, Sec. 1, Xuefu Rd., Tucheng Dist
  bemp: '28'
  lat: '24.982770'
  lng: '121.449900'
  mday: '20180611070939'
  sarea: 土城區
  sareaen: Tucheng Dist.
  sbi: '15'
  sna: 新北高工
  snaen: New Taipei Industrial Vocational High School
  sno: '1315'
  tot: '44'
- act: '1'
  ar: 民權路鐵道巷14號(東側機車停車場)
  aren: No.14, Railway Ln., Minquan St., Ruifang Dist.
  bemp: '16'
  lat: '25.108506'
  lng: '121.806460'
  mday: '20180611070935'
  sarea: 瑞芳區
  sareaen: Ruifang Dist.
  sbi: '27'
  sna: 瑞芳火車站
  snaen: Ruifang Train Station
  sno: '1316'
  tot: '44'
- act: '1'
  ar: 土城區中華路二段91~95號(人行道)
  aren: No.91~95, Sec. 2, Zhonghua Rd., Tucheng Dist
  bemp: '6'
  lat: '24.978108'
  lng: '121.439369'
  mday: '20180611070932'
  sarea: 土城區
  sareaen: Tucheng Dist.
  sbi: '30'
  sna: 長風社區
  snaen: Changfeng Community
  sno: '1317'
  tot: '36'
- act: '1'
  ar: 永和區永利路141號(對面人行道)
  aren: No.141, Yongli Rd., Yonghe Dist(oppsite)
  bemp: '11'
  lat: '25.003555'
  lng: '121.524246'
  mday: '20180611070917'
  sarea: 永和區
  sareaen: Yonghe Dist.
  sbi: '27'
  sna: 永和國民運動中心
  snaen: Yonghe Civil Sports Center
  sno: '1318'
  tot: '40'
- act: '1'
  ar: 中和區員山路266巷39號(對面路側)
  aren: No.39, Ln. 266, Yuanshan Rd., Zhonghe Dist.
  bemp: '8'
  lat: '25.001834'
  lng: '121.482594'
  mday: '20180611070932'
  sarea: 中和區
  sareaen: Zhonghe Dist.
  sbi: '28'
  sna: 民樂人行廣場
  snaen: Minle Jenhsing Square
  sno: '1319'
  tot: '36'
- act: '1'
  ar: 新北市樹林區保安街一段/保安街一段14巷
  aren: No.1, Ln. 14, Sec. 1, Bao’an St., Shulin Dist
  bemp: '17'
  lat: '24.992983'
  lng: '121.428196'
  mday: '20180611070921'
  sarea: 樹林區
  sareaen: Shulin Dist.
  sbi: '13'
  sna: 民生親子公園
  snaen: Minsheng Parent-child Park
  sno: '1320'
  tot: '30'
- act: '1'
  ar: 樹林區保安街二段6號(前面廣場)
  aren: No.6, Sec. 2, Bao’an St., Shulin Dist.(square)
  bemp: '14'
  lat: '25.000868'
  lng: '121.416091'
  mday: '20180611070932'
  sarea: 樹林區
  sareaen: Shulin Dist.
  sbi: '24'
  sna: 樹林工業區
  snaen: Shulin industrial zone
  sno: '1321'
  tot: '38'
- act: '1'
  ar: 新北市三峽區國光街85號
  aren: No.85, Guoguang St., Sanxia Dist
  bemp: '19'
  lat: '24.938911'
  lng: '121.373676'
  mday: '20180611070925'
  sarea: 三峽區
  sareaen: Sanxia Dist.
  sbi: '17'
  sna: 防災公園
  snaen: Fangzai Park
  sno: '1322'
  tot: '36'
- act: '1'
  ar: 鶯歌區國中街1號(人行道)
  aren: No.1, Guozhong St., Yingge Dist(sidewalk)
  bemp: '15'
  lat: '24.944300'
  lng: '121.342089'
  mday: '20180611070935'
  sarea: 鶯歌區
  sareaen: Yingge Dist.
  sbi: '17'
  sna: 尖山國中
  snaen: Municipal Jianshan Junior High School
  sno: '1323'
  tot: '32'
- act: '1'
  ar: 新店區北新路三段105巷2號(路側)
  aren: No.2, Ln. 105, Sec. 3, Beixin Rd., Xindian Dist.
  bemp: '23'
  lat: '24.982138'
  lng: '121.540903'
  mday: '20180611070927'
  sarea: 新店區
  sareaen: Xindian Dist.
  sbi: '13'
  sna: 新北市立圖書館新店分館
  snaen: New Taipei City Library Xindian Branch
  sno: '1324'
  tot: '36'
- act: '1'
  ar: 板橋區僑中二街/大觀路一段38巷(自行車停放區內)
  aren: No.90, Ln. 38, Sec. 1, Daguan Rd./Qiaozhong 2nd St., Banqiao Dist.
  bemp: '35'
  lat: '25.004098'
  lng: '121.444447'
  mday: '20180611070945'
  sarea: 板橋區
  sareaen: Banqiao Dist.
  sbi: '13'
  sna: 浮洲火車站
  snaen: Fuzhou Train Station
  sno: '1325'
  tot: '48'
- act: '1'
  ar: 土城區海山路(捷運海山站1號出口人行道)
  aren: Haishan Rd., Tucheng Dist.(MRT Haishan 1)
  bemp: '60'
  lat: '24.984695'
  lng: '121.448504'
  mday: '20180611070928'
  sarea: 土城區
  sareaen: Tucheng Dist.
  sbi: '20'
  sna: 捷運海山站(1號出口)
  snaen: MRT Haishan
  sno: '1326'
  tot: '80'
- act: '1'
  ar: 新北市深坑區文化街45號(兒童公園旁)
  aren: No.45, Wenhua St., Shenkeng Dist(park)
  bemp: '33'
  lat: '25.0015'
  lng: '121.616311'
  mday: '20180611070940'
  sarea: 深坑區
  sareaen: shenkeng Dist.
  sbi: '16'
  sna: 深坑區公所(深坑老街)
  snaen: Shenkeng District Office(Shenkeng Old Street)
  sno: '1327'
  tot: '50'
- act: '1'
  ar: 深坑區北深路三段170號(對面機車格)
  aren: No.170, Sec. 3, Beishen Rd., Shenkeng Dist
  bemp: '22'
  lat: '25.0033'
  lng: '121.602501'
  mday: '20180611070928'
  sarea: 深坑區
  sareaen: shenkeng Dist.
  sbi: '11'
  sna: 東南科技大學
  snaen: Tungnan University
  sno: '1328'
  tot: '34'
- act: '1'
  ar: 中和區德光國光街口(巷子路側)
  aren: Deguang Rd., Zhonghe Dist./Guoguang St.
  bemp: '7'
  lat: '25.003136'
  lng: '121.468087'
  mday: '20180611070926'
  sarea: 中和區
  sareaen: Zhonghe Dist.
  sbi: '27'
  sna: 德光國光街口
  snaen: Tekuang & Kuokuang Intersection
  sno: '1329'
  tot: '34'
- act: '1'
  ar: 逢甲路82號(對面機車停車場)
  aren: No.82, Fengjia Rd., Ruifang Dist.
  bemp: '27'
  lat: '25.108472'
  lng: '121.809735'
  mday: '20180611070934'
  sarea: 瑞芳區
  sareaen: Ruifang Dist.
  sbi: '3'
  sna: 瑞芳區公所
  snaen: Ruifang District Office
  sno: '1330'
  tot: '30'
- act: '1'
  ar: 永和區國光路9號(前人行道)
  aren: No.9, Guoguang Rd., Yonghe Dist.
  bemp: '21'
  lat: '25.008390'
  lng: '121.520234'
  mday: '20180611070927'
  sarea: 永和區
  sareaen: Yonghe Dist.
  sbi: '9'
  sna: 永和國父紀念館
  snaen: Yonghe-Sun Yat-Sen Memorial Hall
  sno: '1331'
  tot: '30'
- act: '1'
  ar: 五股區四維路116號(人行道)
  aren: No. 116, Siwei Rd., Wugu Dist.
  bemp: '11'
  lat: '25.074424'
  lng: '121.467852'
  mday: '20180611070930'
  sarea: 五股區
  sareaen: Wugu Dist.
  sbi: '19'
  sna: 台北得意GO
  snaen: Taipei Deyi GO
  sno: '1332'
  tot: '30'
- act: '1'
  ar: 板橋區僑中二街8巷(對面人行道)
  aren: Ln. 8, Qiaozhong 2nd St., Banqiao Dist.(oppsite)
  bemp: '2'
  lat: '25.011210'
  lng: '121.447237'
  mday: '20180611070945'
  sarea: 板橋區
  sareaen: Banqiao Dist.
  sbi: '36'
  sna: 大觀國中
  snaen: Daguan Junior High School
  sno: '1333'
  tot: '40'
- act: '1'
  ar: 三重區三賢街203號(對面汽車格)
  aren: No.203, Sanxian St., Sanchong Dist
  bemp: '13'
  lat: '25.086448'
  lng: '121.485599'
  mday: '20180611070936'
  sarea: 三重區
  sareaen: Sanchong Dist.
  sbi: '19'
  sna: 太陽公園
  snaen: Taiyang Park
  sno: '1334'
  tot: '32'
- act: '1'
  ar: 三重區五華街7巷(對面公園人行道)
  aren: Ln. 7, Wuhua St., Sanchong Dist
  bemp: '10'
  lat: '25.080648'
  lng: '121.496149'
  mday: '20180611070936'
  sarea: 三重區
  sareaen: Sanchong Dist.
  sbi: '18'
  sna: 三重五常公園
  snaen: Wuchang Park(Sanchong Dist)
  sno: '1335'
  tot: '28'
- act: '1'
  ar: 三重區仁和街205號(斜對面公園人行道)
  aren: No.205, Renhe St., Sanchong Dist
  bemp: '20'
  lat: '25.074974'
  lng: '121.500542'
  mday: '20180611070945'
  sarea: 三重區
  sareaen: Sanchong Dist.
  sbi: '16'
  sna: 三德公園
  snaen: Sante Park
  sno: '1336'
  tot: '36'
- act: '1'
  ar: 三重區力行路/大勇街口(路側)
  aren: Sec. 1, Lixing Rd., Sanchong Dist.,/,Dayong St., Sanchong Dist.(oppsite)
  bemp: '20'
  lat: '25.071928'
  lng: '121.481508'
  mday: '20180611070943'
  sarea: 三重區
  sareaen: Sanchong Dist.
  sbi: '10'
  sna: 力行大勇街口
  snaen: Lixing & Tayung Intersection
  sno: '1337'
  tot: '30'
- act: '1'
  ar: 蘆洲區長安街102巷5弄12號(對面)
  aren: No.12, Aly. 5, Ln. 102, Chang’an St., Luzhou Dist.
  bemp: '22'
  lat: '25.081620'
  lng: '121.461620'
  mday: '20180611070924'
  sarea: 蘆洲區
  sareaen: Luzhou Dist.
  sbi: '14'
  sna: 蘆洲延平派出所
  snaen: Luzhou Yanping Police Station
  sno: '1338'
  tot: '36'
- act: '1'
  ar: 蘆洲區永安南路/九芎街71巷口(對面人行道)
  aren: No.1, Sec. 2, Yong’an S. Rd., Luzhou Dist/No.1, Ln. 71, Jiuqiong St.
  bemp: '18'
  lat: '25.077564'
  lng: '121.466071'
  mday: '20180611070934'
  sarea: 蘆洲區
  sareaen: Luzhou Dist.
  sbi: '18'
  sna: 永安南路九芎街71巷口
  snaen: Yong' an S. Rd. & Ln. 71, Jiuqiong St Intersection
  sno: '1339'
  tot: '36'
- act: '1'
  ar: 中和區廣福路112號(人行道)
  aren: No.112, Guangfu Rd., Zhonghe Dist
  bemp: '32'
  lat: '25.001110'
  lng: '121.501991'
  mday: '20180611070927'
  sarea: 中和區
  sareaen: Zhonghe Dist.
  sbi: '17'
  sna: 福和宮
  snaen: Fuhe Temple
  sno: '1340'
  tot: '50'
- act: '1'
  ar: 中和區興南路二段159巷4號(人行道)
  aren: No.4, Ln. 159, Sec. 2, Xingnan Rd., Zhonghe Dist(sidewalk)
  bemp: '19'
  lat: '24.983471'
  lng: '121.504826'
  mday: '20180611070938'
  sarea: 中和區
  sareaen: Zhonghe Dist.
  sbi: '23'
  sna: 飛駝社區(興南路)
  snaen: Feito Community(Xingnan Rd.)
  sno: '1341'
  tot: '42'
- act: '1'
  ar: 永和區保平路214巷12弄12號(對面路側)
  aren: No.12, Aly. 12, Ln. 214, Baoping Rd., Yonghe Dist.
  bemp: '14'
  lat: '25.007010'
  lng: '121.509208'
  mday: '20180611070934'
  sarea: 永和區
  sareaen: Yonghe Dist.
  sbi: '15'
  sna: 保平路214巷
  snaen: Baoping Ln 214
  sno: '1342'
  tot: '30'
- act: '1'
  ar: 汐止區大同路二段182號(人行道)
  aren: No.182, Sec. 2, Datong Rd., Xizhi Dist.
  bemp: '25'
  lat: '25.062884'
  lng: '121.646597'
  mday: '20180611070916'
  sarea: 汐止區
  sareaen: Xizhi Dist.
  sbi: '23'
  sna: 汐科火車站(南)
  snaen: Xike Railway Station(South)
  sno: '1343'
  tot: '48'
- act: '1'
  ar: 樹林區啟智街/文化街口(啟智街129號)
  aren: Wenhua St./Qizhi St., Shulin Dist., New Taipei City
  bemp: '30'
  lat: '24.989103'
  lng: '121.418296'
  mday: '20180611070932'
  sarea: 樹林區
  sareaen: Shulin Dist.
  sbi: '4'
  sna: 樹林國小
  snaen: Shulin elementary school
  sno: '1344'
  tot: '34'
- act: '1'
  ar: 鶯歌區德昌二街39號(對面人行道)
  aren: No.39, Dechang 2nd St., Yingge Dist.
  bemp: '13'
  lat: '24.958747'
  lng: '121.333095'
  mday: '20180611070939'
  sarea: 鶯歌區
  sareaen: Yingge Dist.
  sbi: '23'
  sna: 永吉國小
  snaen: Yongchi elementary school
  sno: '1345'
  tot: '36'
- act: '1'
  ar: 三峽區弘園街55號(對面人行道)
  aren: No.55, Hongyuan St., Sanxia Dist
  bemp: '20'
  lat: '24.927551'
  lng: '121.366919'
  mday: '20180611070916'
  sarea: 三峽區
  sareaen: Sanxia Dist.
  sbi: '16'
  sna: 中園國小
  snaen: Zhongyuan elementary school
  sno: '1346'
  tot: '36'
- act: '1'
  ar: 三峽區介壽路一段/大同路口(人行道)
  aren: No.1, Sec. 1, Jieshou Rd., Sanxia Dist./ Datong Rd.
  bemp: '18'
  lat: '24.930341'
  lng: '121.378835'
  mday: '20180611070958'
  sarea: 三峽區
  sareaen: Sanxia Dist.
  sbi: '12'
  sna: 介壽國小
  snaen: Jieshou elementary school
  sno: '1347'
  tot: '30'
- act: '1'
  ar: 三峽區中正路一段/大同路(人行道路橋旁)
  aren: Zhongzheng Road Section / Datong Road (next to the sidewalk)
  bemp: '16'
  lat: '24.926790'
  lng: '121.371957'
  mday: '20180611070926'
  sarea: 三峽區
  sareaen: Sanxia Dist.
  sbi: '16'
  sna: 安溪國中
  snaen: Ansi Junior High School
  sno: '1348'
  tot: '32'
- act: '1'
  ar: 三峽區大學路47號(對面人行道)
  aren: No.47, Daxue Rd., Sanxia Dist.
  bemp: '17'
  lat: '24.941224'
  lng: '121.376763'
  mday: '20180611070918'
  sarea: 三峽區
  sareaen: Sanxia Dist.
  sbi: '21'
  sna: 龍埔國小
  snaen: Longpu elementary school
  sno: '1349'
  tot: '38'
- act: '1'
  ar: 樹林區大安路622號(前人行道)
  aren: No. 622, Daan Rd., Shulin Dist.
  bemp: '20'
  lat: '24.983043'
  lng: '121.411318'
  mday: '20180611070936'
  sarea: 樹林區
  sareaen: Shulin Dist.
  sbi: '14'
  sna: 大安路與中山路二段口
  snaen: Daan & Sec.2 Zhongshan Intersection
  sno: '1350'
  tot: '34'
- act: '1'
  ar: 樹林區博愛街198-1~198-5號(對面人行道)
  aren: No.198-1~198-5, Bo’ai St., Shulin Dist.
  bemp: '23'
  lat: '24.989760'
  lng: '121.424780'
  mday: '20180611070917'
  sarea: 樹林區
  sareaen: Shulin Dist.
  sbi: '17'
  sna: 樹林區公所
  snaen: Shulin District Office
  sno: '1351'
  tot: '40'
- act: '1'
  ar: 重陽二街22號(對面人行道)
  aren: No.22, Chongyang 2nd St., Luzhou Dist.
  bemp: '14'
  lat: '25.085055'
  lng: '121.481887'
  mday: '20180611070919'
  sarea: 蘆洲區
  sareaen: Luzhou Dist.
  sbi: '16'
  sna: 蘆洲重陽大樓
  snaen: Luzhou Chongyang Building
  sno: '1352'
  tot: '30'
- act: '1'
  ar: 新北市板橋區永豐街44號
  aren: No.44, Yongfeng St., Banqiao Dist
  bemp: '21'
  lat: '25.019078'
  lng: '121.473724'
  mday: '20180611070917'
  sarea: 板橋區
  sareaen: Banqiao Dist.
  sbi: '13'
  sna: 埔墘國小
  snaen: Puqian Elementary School
  sno: '1353'
  tot: '34'
- act: '1'
  ar: 中和區圓通路367巷路側(46-52停車格)
  aren: Ln. 367, Yuantong Rd., Zhonghe Dist.
  bemp: '14'
  lat: '24.989236'
  lng: '121.491482'
  mday: '20180611070918'
  sarea: 中和區
  sareaen: Zhonghe Dist.
  sbi: '32'
  sna: 圓通錦和路口
  snaen: Yuantong & Jinhe Intersection
  sno: '1354'
  tot: '46'
- act: '1'
  ar: 舊城路19號前
  aren: No.19, Jiucheng Rd., Bali Dist
  bemp: '17'
  lat: '25.146498'
  lng: '121.399748'
  mday: '20180611070944'
  sarea: 八里區
  sareaen: Bali Dist.
  sbi: '12'
  sna: 下庄市場
  snaen: Shia Juang Market
  sno: '1355'
  tot: '30'
- act: '1'
  ar: 亞洲路94號(對面人行道)
  aren: No. 94, Yazhou Rd., Tucheng Dist.
  bemp: '27'
  lat: '24.972621'
  lng: '121.434796'
  mday: '20180611070936'
  sarea: 土城區
  sareaen: Tucheng Dist.
  sbi: '7'
  sna: 亞洲員安路口
  snaen: Yazhou & Yuan'an Rd.
  sno: '1356'
  tot: '34'
- act: '1'
  ar: 樹林區大安路307巷口
  aren: Ln. 307 Daan & Daan Intersection, Shulin Dist.
  bemp: '32'
  lat: '24.992158'
  lng: '121.417726'
  mday: '20180611070942'
  sarea: 樹林區
  sareaen: Shulin Dist.
  sbi: '0'
  sna: 大安路307巷口
  snaen: Ln. 307 Daan & Daan Intersection
  sno: '1357'
  tot: '32'
- act: '1'
  ar: 觀海路199號(右側人行廣場)
  aren: No. 199, Guanhai Rd., Tamsui Dist.
  bemp: '29'
  lat: '25.183869'
  lng: '121.411178'
  mday: '20180611070933'
  sarea: 淡水區
  sareaen: Tamsui Dist.
  sbi: '21'
  sna: 漁人碼頭
  snaen: Fisherman's Wharf
  sno: '1358'
  tot: '50'
- act: '1'
  ar: 味王街3號(馬路側)
  aren: No. 3, Weiwang Street, Shulin Dist.
  bemp: '19'
  lat: '24.974674'
  lng: '121.404424'
  mday: '20180611070920'
  sarea: 樹林區
  sareaen: Shulin Dist.
  sbi: '10'
  sna: 味王街
  snaen: St. Weiwang
  sno: '1359'
  tot: '30'
- act: '1'
  ar: 福美街128巷12號
  aren: No.12, Ln. 128, Fumei St., Xinzhuang Dist.
  bemp: '10'
  lat: '25.058100'
  lng: '121.460892'
  mday: '20180611070935'
  sarea: 新莊區
  sareaen: Xinzhuang Dist.
  sbi: '22'
  sna: 福基公園
  snaen: Zhenyi Village Park
  sno: '1360'
  tot: '32'
- act: '1'
  ar: 萬安街55號(對面機車停車格)
  aren: No. 55, Wanan Street, Banqiao Dist.
  bemp: '9'
  lat: '25.023888'
  lng: '121.483965'
  mday: '20180611070920'
  sarea: 板橋區
  sareaen: Banqiao Dist.
  sbi: '21'
  sna: 振義里公園
  snaen: Zhenyi Village Park
  sno: '1361'
  tot: '30'
- act: '1'
  ar: 中華路61號(對面路側)
  aren: No.61, Zhonghua Rd., Sanxia Dist.
  bemp: '17'
  lat: '24.930621'
  lng: '121.372344'
  mday: '20180611070927'
  sarea: 三峽區
  sareaen: Sanxia Dist.
  sbi: '19'
  sna: 安溪國小
  snaen: Anxi Elementary School
  sno: '1362'
  tot: '36'
- act: '1'
  ar: 中和路與安和路口
  aren: Zhonghe Rd./Anhe Rd., Zhonghe Dist.
  bemp: '15'
  lat: '24.999667'
  lng: '121.506022'
  mday: '20180611070927'
  sarea: 中和區
  sareaen: Zhonghe Dist.
  sbi: '19'
  sna: 中和安和路口
  snaen: Zhonghe & Anhoe Rd.
  sno: '1363'
  tot: '34'
- act: '1'
  ar: 中山路三段與台新街口
  aren: Sec. 3, Zhongshan Rd./Taixin St., Zhonghe Dist.
  bemp: '22'
  lat: '25.005718'
  lng: '121.478997'
  mday: '20180611070920'
  sarea: 中和區
  sareaen: Zhonghe Dist.
  sbi: '7'
  sna: 元氣大鎮社區
